Name,Fulladdress,Categories,Time Zone,Claimed,Review Count,Average Rating,Review URL,Google Maps URL,Latitude,Longitude,Website,Domain,Opening Hours,Featured Image,Place Id,phone
G&G Medan Express Laundry,"Jl. Seksama No.93, Sitirejo III, Kec. Medan Amplas, Kota Medan, Sumatera Utara 2",Layanan Binatu,Asia/Jakarta,NO,1,5.0,https://search.google.com/local/reviews?placeid=ChIJU7Kv6aExMTARCGifpqJgKT8&q=la,https://www.google.com/maps?cid=4551275150131030024,3.5520086,98.7136317,0,0,None,https://lh5.googleusercontent.com/p/AF1QipNBA5lG6Uar_jeqJ4hM-1ZRqcl7PLghgU_4MIsg,ChIJU7Kv6aExMTARCGifpqJgKT8,None
Fathia Laundry,"Jl. Garu II A, Harjosari I, Kec. Medan Amplas, Kota Medan, Sumatera Utara 20147",Binatu,Asia/Jakarta,YES,43,5.0,https://search.google.com/local/reviews?placeid=ChIJwcSI9joxMTARLehZEoUNBNY&q=la,https://www.google.com/maps?cid=15421465889213114413,3.5456277,98.7025361,0,0,"Minggu: [08.00-20.00], Senin: [08.00-20.00], Selasa: [08.00-20.00], Rabu: [08.00",https://lh5.googleusercontent.com/p/AF1QipNXkNUUZmN9d9829DdZHN2cK7KiXjcPYHFxCTsx,ChIJwcSI9joxMTARLehZEoUNBNY,+62 823-6799-9920
ocean fresh laundry,"A M P L A S, Medan Amplas, A M P L A S, Kec. Medan Amplas, Kota Medan, Sumatera ",Layanan Binatu,Asia/Jakarta,YES,1,5.0,https://search.google.com/local/reviews?placeid=ChIJ2_5OLCMxMTARqwdZMBISi_E&q=la,https://www.google.com/maps?cid=17405025054233266091,3.5517831,98.7179786,0,0,None,https://streetviewpixels-pa.googleapis.com/v1/thumbnail?panoid=B1RttkihkMlq8l1xC,ChIJ2_5OLCMxMTARqwdZMBISi_E,None
PRATAMA Laundry,"Jl. Panglima Denai No.104, A M P L A S, Kec. Medan Amplas, Kota Medan, Sumatera ",Binatu,Asia/Jakarta,YES,2,5.0,https://search.google.com/local/reviews?placeid=ChIJHbd2L7UxMTARGCHkkw9uUPY&q=la,https://www.google.com/maps?cid=17748807144651890968,3.5484378,98.7162726,0,0,"Minggu: [08.00-17.00], Senin: [08.00-20.00], Selasa: [08.00-20.00], Rabu: [08.00",https://lh5.googleusercontent.com/p/AF1QipPIpRrsa15tIO_Q643WFSO1IQ1BO9QXRhwIEsRJ,ChIJHbd2L7UxMTARGCHkkw9uUPY,None
Nayala Laundry,"GMGW+HPM, Jl. Swadaya, gg.pete, Kec. Medan Amplas, Kota Medan, Sumatera Utara 20",Binatu,Asia/Jakarta,NO,1,5.0,https://search.google.com/local/reviews?placeid=ChIJNQvrBt47MTARqyKJzw9uPZw&q=la,https://www.google.com/maps?cid=11258275657681543851,3.5264592,98.6968022,0,0,"Minggu: [Tutup], Senin: [08.00-21.00], Selasa: [08.00-21.00], Rabu: [08.00-21.00",https://streetviewpixels-pa.googleapis.com/v1/thumbnail?panoid=uWYCgM9vZm7KbpZix,ChIJNQvrBt47MTARqyKJzw9uPZw,+62 812-6470-0604
Nadine Laundry,"GMVX+GX5, Harjosari I, Kec. Medan Amplas, Kota Medan, Sumatera Utara 20217",Binatu,Asia/Jakarta,NO,1,5.0,https://search.google.com/local/reviews?placeid=ChIJ1dt8zCAxMTARa-4VlvF2X5U&q=la,https://www.google.com/maps?cid=10763452414415990379,3.5437726,98.6999927,0,0,"Minggu: [Tutup], Senin: [08.00-21.00], Selasa: [08.00-21.00], Rabu: [08.00-21.00",https://lh5.googleusercontent.com/p/AF1QipOK2dJmE8Y_TraLofOJH50G1o-4Hx2EIGrbZrNF,ChIJ1dt8zCAxMTARa-4VlvF2X5U,+62 852-7093-5395
Berkah Laundry Express,"GPM7+26C, Harjosari II, Kec. Medan Amplas, Kota Medan, Sumatera Utara 20148",Binatu,Asia/Jakarta,YES,3,5.0,https://search.google.com/local/reviews?placeid=ChIJI9WFBAA7MTARcXpwleqbZVE&q=la,https://www.google.com/maps?cid=5865265521551768177,3.5327741,98.7127252,0,0,"Minggu: [08.00-20.00], Senin: [08.00-20.00], Selasa: [08.00-20.00], Rabu: [08.00",https://lh5.googleusercontent.com/p/AF1QipP5OZTM9JuEa0ndviGBYj8SqvhGhKVmY0Zxrl0B,ChIJI9WFBAA7MTARcXpwleqbZVE,None
Hezi Laundry,"GPW6+5G7, Gg. Bakti, Harjosari I, Kec. Medan Amplas, Kota Medan, Sumatera Utara",Binatu,Asia/Jakarta,NO,4,5.0,https://search.google.com/local/reviews?placeid=ChIJscXbm58xMTARAgsV3g_1rCE&q=la,https://www.google.com/maps?cid=2426583747745090306,3.5454016,98.7112989,0,0,"Minggu: [07.00-21.00], Senin: [07.00-21.00], Selasa: [07.00-21.00], Rabu: [07.00",https://lh5.googleusercontent.com/p/AF1QipNBNsWt9KlqKEv16wXczFGndgPUtEFzxiJ8anpI,ChIJscXbm58xMTARAgsV3g_1rCE,None
Dinar Laundry,"GPJC+4P4, Jl. Pelita, Timbang Deli, Kec. Medan Amplas, Kota Medan, Sumatera Utar",Layanan Binatu,Asia/Jakarta,NO,20,5.0,https://search.google.com/local/reviews?placeid=ChIJ-yItGuU7MTAR0rHkiFOkJ5I&q=la,https://www.google.com/maps?cid=10531566932315124178,3.5302519,98.7218239,0,0,"Minggu: [09.30-20.00], Senin: [08.00-20.00], Selasa: [08.00-20.00], Rabu: [08.00",https://lh5.googleusercontent.com/p/AF1QipPDbPxyKVE5lnrrVzlnVjRwEJ36_C5U1maxOK0A,ChIJ-yItGuU7MTAR0rHkiFOkJ5I,None
Queen laundry express siap 1 hari,"Jl. Garu 1 No.144, Sitirejo III, Kec. Medan Amplas, Kota Medan, Sumatera Utara 2",Layanan Binatu,Asia/Jakarta,YES,1,5.0,https://search.google.com/local/reviews?placeid=ChIJCVTCwfcxMTARsAMeNI1QyeE&q=la,https://www.google.com/maps?cid=16269623696247620528,3.5474779,98.7087411,0,0,"Minggu: [08.00-21.00], Senin: [08.00-21.00], Selasa: [08.00-21.00], Rabu: [08.00",https://lh5.googleusercontent.com/p/AF1QipPbMFRP24gDmuYzqxMeyy1HBmngqwhke_V7o0-o,ChIJCVTCwfcxMTARsAMeNI1QyeE,+62 813-6239-6604
Noda Laundry Medan (Wet Cleaning & Dry Cleaning),"Jl. Padang Golf No.10, Suka Damai, Kec. Medan Polonia, Kota Medan, Sumatera Utar","Binatu, Binatu Cucian Kering, Layanan Binatu",Asia/Jakarta,YES,212,4.8,https://search.google.com/local/reviews?placeid=ChIJZab2DYsxMTARRik1nh-KByg&q=la,https://www.google.com/maps?cid=2884425954756995398,3.5566108,98.6812547,0,0,"Minggu: [08.00-20.00], Senin: [08.00-20.00], Selasa: [08.00-20.00], Rabu: [08.00",https://lh5.googleusercontent.com/p/AF1QipOpuqhaH2hjsiHZrLMnt5oHw6rspTLWKLDUEQxH,ChIJZab2DYsxMTARRik1nh-KByg,+62 857-6076-2519
Laundry Medan,"Jl. Pinang Baris Gg. Langgar No.26, Sunggal, Kec. Medan Sunggal, Kota Medan, Sum","Binatu Cucian Kering, Layanan Binatu",Asia/Jakarta,YES,13,5.0,https://search.google.com/local/reviews?placeid=ChIJHRs8VfouMTARjb2D46PS_Tw&q=la,https://www.google.com/maps?cid=4394900412722036109,3.5759362,98.6100717,0,0,"Minggu: [Buka 24 jam], Senin: [Buka 24 jam], Selasa: [Buka 24 jam], Rabu: [Buka ",https://lh5.googleusercontent.com/p/AF1QipMTm1OXBG-3Q6vxVzD-IfEUp-V5BfHeHJ4Npgkw,ChIJHRs8VfouMTARjb2D46PS_Tw,+62 853-6230-0075
Laundry Medan,"Jl. Brig Jend. Zein Hamid No.28, Kedai Durian, Kec. Medan Johor, Kota Medan, Sum",Binatu Cucian Kering,Asia/Jakarta,NO,64,5.0,https://search.google.com/local/reviews?placeid=ChIJr7PnYgExMTARsxponWu--jc&q=la,https://www.google.com/maps?cid=4033745785675324083,3.5195951,98.6808342,0,0,"Minggu: [06.00-22.00], Senin: [06.00-22.00], Selasa: [06.00-22.00], Rabu: [06.00",https://lh5.googleusercontent.com/p/AF1QipPqc0orUIBETCgA8JtT6fVm1QmBYKp8wpTLlEB1,ChIJr7PnYgExMTARsxponWu--jc,+62 853-6230-0075
"Laundry AMANAH VIP 1 jam an siap, free antar jemput, Medan","Jl. Durung No.171, Sidorejo Hilir, Kec. Medan Tembung, Kota Medan, Sumatera Utar",Layanan Binatu,Asia/Jakarta,YES,82,4.8,https://search.google.com/local/reviews?placeid=ChIJ7Xl0elsxMTAR4zSa283mYd4&q=la,https://www.google.com/maps?cid=16024342720987935971,3.6093949,98.7032771,0,0,"Minggu: [09.00-22.00], Senin: [09.00-20.00], Selasa: [09.00-17.00], Rabu: [09.00",https://lh5.googleusercontent.com/p/AF1QipOumFa_fdHJ7kVcVjoW8HQnfyduX6odrZlYijXS,ChIJ7Xl0elsxMTAR4zSa283mYd4,+62 812-8759-854
Laundry Express Medan - Barakah Laundry,"Jl. Karya No.36D, Sei Agul, Kec. Medan Bar., Kota Medan, Sumatera Utara 20117",Binatu Cucian Kering,Asia/Jakarta,YES,56,4.9,https://search.google.com/local/reviews?placeid=ChIJ5zqBrkcxMTAR511QzL1lRPA&q=la,https://www.google.com/maps?cid=17313074733370072551,3.6035417,98.6651939,0,0,"Minggu: [07.00-20.30], Senin: [07.00-20.30], Selasa: [07.00-20.30], Rabu: [07.00",https://lh5.googleusercontent.com/p/AF1QipMUpZeSMZE_xbK8Z_r7SdX4kz1LjTtO2lPuzjq7,ChIJ5zqBrkcxMTAR511QzL1lRPA,+62 812-6950-9929
Noda Laundry Medan (Wet Cleaning & Dry Cleaning),"Jl. Gandhi No.218B, Sei Rengas II, Kec. Medan Area, Kota Medan, Sumatera Utara 2","Binatu Cucian Kering, Layanan Binatu",Asia/Jakarta,YES,21,4.8,https://search.google.com/local/reviews?placeid=ChIJv83ZiTYxMTARtFGt0m6NMoE&q=la,https://www.google.com/maps?cid=9309658886848729524,3.5852254,98.6997607,0,0,"Minggu: [09.00-20.00], Senin: [09.00-20.00], Selasa: [09.00-20.00], Rabu: [09.00",https://lh5.googleusercontent.com/p/AF1QipMfYGDJfjGmPLLEfooTwhj1eFFLB3MKvA7D7-sc,ChIJv83ZiTYxMTARtFGt0m6NMoE,+62 811-6143-977
Noda Laundry Medan (Wet Cleaning & Dry Cleaning),"Ruko Halat Center No A-2, Jl. Halat, Ps. Merah Bar., Kec. Medan Kota, Kota Medan","Binatu, Grosir bahan kimia, Pemasok peralatan binatu yang dioperasikan dengan ko",Asia/Jakarta,YES,38,4.6,https://search.google.com/local/reviews?placeid=ChIJR1XFo08wMTARfYXuJaPwOTA&q=la,https://www.google.com/maps?cid=3475073170999772541,3.5722704,98.6907117,0,0,"Minggu: [Tutup], Senin: [08.00-20.00], Selasa: [08.00-20.00], Rabu: [08.00-19.00",https://lh5.googleusercontent.com/p/AF1QipNNfojgmetwNOg14qYt0iVfYBGyUR5Rnze0uQO8,ChIJR1XFo08wMTARfYXuJaPwOTA,+62 822-2720-0082
laundry (C63 Laundry medan),"pajak pagi, Jl. Cahaya No.63, Durian, Kec. Medan Tim., Kota Medan, Sumatera Utar",Binatu,Asia/Jakarta,YES,27,4.9,https://search.google.com/local/reviews?placeid=ChIJl4AD5OwxMTARC7JdXCSj_mA&q=la,https://www.google.com/maps?cid=6989203048289382923,3.6076877,98.6802986,0,0,"Minggu: [Tutup], Senin: [07.00-18.00], Selasa: [07.00-18.00], Rabu: [07.00-18.00",https://lh5.googleusercontent.com/p/AF1QipOQxNgO7qoTcWSbgmO-uBEvnxUrhpd0-__oXxU7,ChIJl4AD5OwxMTARC7JdXCSj_mA,+62 813-7661-0143
Megoria Laundry & Dry Cleaning,"Jl. KH. Zainul Arifin No.140, Petisah Tengah, Kec. Medan Petisah, Kota Medan, Su",Layanan Binatu,Asia/Jakarta,NO,21,4.6,https://search.google.com/local/reviews?placeid=ChIJ4YcMbNIxMTAR1SJ4pFWuNJk&q=la,https://www.google.com/maps?cid=11039640269446718165,3.5839562,98.6700898,0,0,None,https://lh3.googleusercontent.com/gps-proxy/ALd4DhEf7mYD7zRjbdGXyBZdydnCy_jcGGlf,ChIJ4YcMbNIxMTAR1SJ4pFWuNJk,+62 61 4511917
Cahaya Laundry Medan,"Jl. Suka Baru No.21, Padang Bulan Selayang I, Kec. Medan Selayang, Kota Medan, S",Binatu,Asia/Jakarta,NO,1,5.0,https://search.google.com/local/reviews?placeid=ChIJf3yCqRsvMTARgy_ovRuJZ54&q=la,https://www.google.com/maps?cid=11414242532837044099,3.5683569,98.6501333,0,0,None,https://streetviewpixels-pa.googleapis.com/v1/thumbnail?panoid=WCgAIFvYT1HPWqLs7,ChIJf3yCqRsvMTARgy_ovRuJZ54,None
Laundry Medan ( Brilliant Laundry),"JM6C+6PH, Jl. Sekata, Sei Agul, Kec. Medan Bar., Kota Medan, Sumatera Utara 2023",Binatu Cucian Kering,Asia/Jakarta,NO,6,4.7,https://search.google.com/local/reviews?placeid=ChIJCQCn4u8xMTARoWOMPbqxaSM&q=la,https://www.google.com/maps?cid=2551766077336740769,3.6105543,98.6718636,0,0,None,https://lh3.googleusercontent.com/gps-proxy/ALd4DhEezTHFv_bX0Ti_h_Yc782mlRCXUwCo,ChIJCQCn4u8xMTARoWOMPbqxaSM,+62 853-6230-0075
Saniah Laundry,"Jl. S. Parman No.53, Petisah Tengah, Kec. Medan Petisah, Kota Medan, Sumatera Ut",Layanan Binatu,Asia/Jakarta,YES,59,4.6,https://search.google.com/local/reviews?placeid=ChIJYckhnd8xMTAR5zTmjRgDIn0&q=la,https://www.google.com/maps?cid=9016772807943927015,3.5906851,98.6702092,0,0,"Minggu: [09.00-19.00], Senin: [08.00-20.00], Selasa: [08.00-20.00], Rabu: [08.00",https://lh5.googleusercontent.com/p/AF1QipOAVgqvFv7NsIpWwnAkMsDx17TEnQVpy193T6IM,ChIJYckhnd8xMTAR5zTmjRgDIn0,+62 819-0608-6668
Rinse n Shine Coin Laundry,"Jl. Karya Rakyat Kel No.71, Sei Agul, Kec. Medan Bar., Kota Medan, Sumatera Utar",Binatu,Asia/Jakarta,YES,2,5.0,https://search.google.com/local/reviews?placeid=ChIJm37FosgvMTARMw_FmmPTY0o&q=la,https://www.google.com/maps?cid=5360360406252850995,3.6065105,98.6577925,0,0,"Minggu: [07.00-21.00], Senin: [07.00-21.00], Selasa: [07.00-21.00], Rabu: [07.00",https://lh5.googleusercontent.com/p/AF1QipOrdvc6pwpHs8xwtWyyFzkdOTYStrQFTBdkddXf,ChIJm37FosgvMTARMw_FmmPTY0o,+62 819-2009-190
laundry medan,"JMC9+XQW, Jl. KL. Yos Sudarso Jl. Lingkungan I, Pulo Brayan Kota, Kec. Medan Bar",Binatu Cucian Kering,Asia/Jakarta,NO,1,5.0,https://search.google.com/local/reviews?placeid=ChIJScSoP2ozMTARPKE7H2kz_yI&q=la,https://www.google.com/maps?cid=2521790842939351356,3.6224817,98.6694551,0,0,None,https://streetviewpixels-pa.googleapis.com/v1/thumbnail?panoid=aoUYAlg8gEf56mdK3,ChIJScSoP2ozMTARPKE7H2kz_yI,+62 812-6686-0094
Chuchi One Stop Laundry,"Jl. K.H. Wahid Hasyim No.126 Simpang Barat, Sei Sikambing D, Kec. Medan Petisah,",Binatu,Asia/Jakarta,YES,10,4.9,https://search.google.com/local/reviews?placeid=ChIJb2c7TyguMTARjnyMhAg21vQ&q=la,https://www.google.com/maps?cid=17642348000481934478,3.5886666,98.6582679,0,0,"Minggu: [08.00-20.00], Senin: [08.00-20.00], Selasa: [08.00-20.00], Rabu: [08.00",https://lh5.googleusercontent.com/p/AF1QipN8opiOUsJHJ0kmMQU8Ecna5kSaIn6mV-I9gXKb,ChIJb2c7TyguMTARjnyMhAg21vQ,+62 823-6905-7444
Premium Laundry,"Jl. Karya No.201, Karang Berombak, Kec. Medan Bar., Kota Medan, Sumatera Utara 2",Binatu Cucian Kering,Asia/Jakarta,YES,21,4.4,https://search.google.com/local/reviews?placeid=ChIJw0CcXJcxMTARtxnCfXABqmc&q=la,https://www.google.com/maps?cid=7469784514605226423,3.6174075,98.6656797,0,0,"Minggu: [07.00-22.00], Senin: [07.00-22.00], Selasa: [07.00-22.00], Rabu: [07.00",https://lh5.googleusercontent.com/p/AF1QipMOe78UibhRqjyqY07LrXEORP7RY0t8Jszm29TU,ChIJw0CcXJcxMTARtxnCfXABqmc,+62 822-7565-7705
Laundry House,"Jl. Jemadi No.17, Pulo Brayan Kota, Kec. Medan Bar., Medan Timur, Sumatera Utara",Binatu Cucian Kering,Asia/Jakarta,YES,42,4.9,https://search.google.com/local/reviews?placeid=ChIJfWJEURsyMTAREnUS02VbfS0&q=la,https://www.google.com/maps?cid=3277876596686615826,3.6259001,98.6715673,0,0,"Minggu: [Tutup], Senin: [08.00-18.00], Selasa: [08.00-18.00], Rabu: [08.00-18.00",https://lh3.googleusercontent.com/gps-proxy/ALd4DhEiZJ5Om38mQFIiBCJTHIb2gnXWnZBi,ChIJfWJEURsyMTAREnUS02VbfS0,+62 811-637-449
Easy Laundry,"Jl. Karya No.146 B, Karang Berombak, Kec. Medan Bar., Kota Medan, Sumatera Utara",Binatu,Asia/Jakarta,YES,1,5.0,https://search.google.com/local/reviews?placeid=ChIJzWAIteAxMTARdsW-zEdvd40&q=la,https://www.google.com/maps?cid=10193738635744822646,3.6117954,98.6656527,0,0,None,https://lh5.googleusercontent.com/p/AF1QipNRq5TvbLNYVvUmftpWL2OXqySbRYbsyI0LBQmx,ChIJzWAIteAxMTARdsW-zEdvd40,None
G2 Laundry,"Jl. Ps. Baru No.55, Titi Rantai, Kec. Medan Baru, Kota Medan, Sumatera Utara 201",Binatu,Asia/Jakarta,YES,2,5.0,https://search.google.com/local/reviews?placeid=ChIJZweMU7cvMTARAV7oJ8779-Q&q=la,https://www.google.com/maps?cid=16498932622746476033,3.5518227,98.6540856,0,0,"Minggu: [10.00-21.00], Senin: [08.00-21.00], Selasa: [08.00-21.00], Rabu: [08.00",https://lh5.googleusercontent.com/p/AF1QipPsas9_xqLwFRpZAFhTEpBxppzDwxc1iq-I-9tw,ChIJZweMU7cvMTARAV7oJ8779-Q,+62 812-6060-0101
Laundry Syari Medan,"Jl. Darussalam No.101, Babura, Kec. Medan Baru, Kota Medan, Sumatera Utara 20153",Binatu,Asia/Jakarta,YES,10,5.0,https://search.google.com/local/reviews?placeid=ChIJsxgYOdMvMTARkAc_yw3kjKE&q=la,https://www.google.com/maps?cid=11640929884741502864,3.5797099,98.6532295,0,0,"Minggu: [Tutup], Senin: [08.00-17.30], Selasa: [08.00-17.30], Rabu: [08.00-17.30",https://lh5.googleusercontent.com/p/AF1QipNzdQweo9GvqmU_flEKjFMdiS2HYyiCz1kS4a5i,ChIJsxgYOdMvMTARkAc_yw3kjKE,+62 813-6273-8258
Everest Laundry & Dry Clean,"Jl. Sei Bahbolon No.50, Babura, Kec. Medan Baru, Kota Medan, Sumatera Utara 2015","Layanan Binatu, Binatu Cucian Kering",Asia/Jakarta,YES,28,4.5,https://search.google.com/local/reviews?placeid=ChIJ4eoiOdIxMTAR-_kWX4bAjxc&q=la,https://www.google.com/maps?cid=1697787267895458299,3.5821086,98.6547673,0,0,"Minggu: [Tutup], Senin: [07.30-19.00], Selasa: [07.30-19.00], Rabu: [07.30-19.00",https://lh5.googleusercontent.com/p/AF1QipNaNk-ooBOQnwY9SH2Wz3IORMHAGR3PJTQU0cav,ChIJ4eoiOdIxMTAR-_kWX4bAjxc,+62 811-610-759
Parfait Laundry,"Jalan Pembangunan USU No.91, Padang Bulan, Kec. Medan Baru, Kota Medan, Sumatera",Layanan Binatu,Asia/Jakarta,YES,34,4.9,https://search.google.com/local/reviews?placeid=ChIJl3N8eL8vMTAR63TEsngtg4Q&q=la,https://www.google.com/maps?cid=9548525631374128363,3.5632353,98.652256,0,0,"Minggu: [10.00-21.00], Senin: [09.00-21.00], Selasa: [09.00-21.00], Rabu: [09.00",https://lh5.googleusercontent.com/p/AF1QipNA2OGNKRJAjEgVzYn4R1uTcr8Q9oFJkv0dN6In,ChIJl3N8eL8vMTAR63TEsngtg4Q,+62 821-4577-2131
Happy Wash Laundry,"Jl. Brigjend Katamso No.626, Kp. Baru, Kec. Medan Maimun, Kota Medan, Sumatera U",Binatu,Asia/Jakarta,NO,3,4.0,https://search.google.com/local/reviews?placeid=ChIJ4RFYUEAxMTARYzBTljC-5zE&q=la,https://www.google.com/maps?cid=3596051943368372323,3.5530192,98.6883079,0,0,"Minggu: [07.00-22.00], Senin: [07.00-22.00], Selasa: [07.00-22.00], Rabu: [07.00",https://lh5.googleusercontent.com/p/AF1QipPhHJ5Ntu_WIb4XEAHlILFZ7u5SN_261uZD5TwM,ChIJ4RFYUEAxMTARYzBTljC-5zE,None
Bens Laundry,"Jl. Jamin Ginting No.638b, Padang Bulan, Kec. Medan Baru, Kota Medan, Sumatera U",Binatu,Asia/Jakarta,YES,20,4.8,https://search.google.com/local/reviews?placeid=ChIJpRFRR38vMTARCh5p8LqT63o&q=la,https://www.google.com/maps?cid=8857335523260833290,3.5512404,98.6597863,0,0,"Minggu: [07.30-21.30], Senin: [07.30-21.30], Selasa: [07.30-21.30], Rabu: [07.30",https://lh5.googleusercontent.com/p/AF1QipPTzKyc0m_mXQJHPC7IBiZDFcURye7r5zN9f5D8,ChIJpRFRR38vMTARCh5p8LqT63o,+62 858-0538-7463
Happy wash laundry,"Jl. Cilacap Timur No.15, Belawan II, Medan Kota Belawan, Kota Medan, Sumatera Ut",Layanan Binatu,Asia/Jakarta,YES,2,5.0,https://search.google.com/local/reviews?placeid=ChIJ5d5qqEDNNjARfSl9oU6uhug&q=la,https://www.google.com/maps?cid=16755271116418525565,3.7796178,98.685352,0,0,"Minggu: [07.30-22.00], Senin: [07.30-22.00], Selasa: [07.30-22.00], Rabu: [07.30",https://lh5.googleusercontent.com/p/AF1QipP-nwoYgcfFEVCu_kB77-atAIhefd-L0YsM1kYQ,ChIJ5d5qqEDNNjARfSl9oU6uhug,+62 822-6708-0099
MARI LAUNDRY,"QMCJ+GMM, Jl. St., Belawan II, Medan Kota Belawan, Kota Medan, Sumatera Utara 20",Layanan Binatu,Asia/Jakarta,NO,1,5.0,https://search.google.com/local/reviews?placeid=ChIJy3Ocv6rNNjARpqC1tXu0DPs&q=la,https://www.google.com/maps?cid=18090032246662996134,3.7713982,98.6816467,0,0,"Minggu: [09.00-21.00], Senin: [09.00-21.00], Selasa: [09.00-21.00], Rabu: [09.00",https://lh5.googleusercontent.com/p/AF1QipP5b90SX--kO7XZL_UCagd5XlxGDZZnrMrEye4B,ChIJy3Ocv6rNNjARpqC1tXu0DPs,+62 822-9702-8832
Laundry Muslim,"Jl. Langkat No.3, Belawan I, Medan Kota Belawan, Kota Medan, Sumatera Utara 2041",Layanan Binatu,Asia/Jakarta,NO,2,4.0,https://search.google.com/local/reviews?placeid=ChIJ82LJD3TONjARP1HlyG65fs4&q=la,https://www.google.com/maps?cid=14879534104346710335,3.7844721,98.6865792,0,0,"Minggu: [Tutup], Senin: [Tutup], Selasa: [Buka 24 jam], Rabu: [Tutup], Kamis: [B",https://lh3.googleusercontent.com/gps-proxy/ALd4DhHsGTEtlggikn-C6j5v7sNnMW7eX6hB,ChIJ82LJD3TONjARP1HlyG65fs4,+62 812-6098-1045
Central Laundry,"Jl. Selebes No.314, Belawan II, Medan Kota Belawan, Kota Medan, Sumatera Utara 2",Toko,Asia/Jakarta,NO,1,5.0,https://search.google.com/local/reviews?placeid=ChIJkUVtbwDNNjAR8457lRZGLd0&q=la,https://www.google.com/maps?cid=15937471719145180915,3.7750964,98.6839576,0,0,None,https://lh5.googleusercontent.com/p/AF1QipN5Owm735Tr1rMhMu-dnDdjmkphbiHQxwk2Lj2J,ChIJkUVtbwDNNjAR8457lRZGLd0,None
Bamb's Laundry,"Jl. Selebes No.213, Belawan II, Medan Kota Belawan, Kota Medan, Sumatera Utara 2","Pemasok peralatan binatu yang dioperasikan dengan koin, Layanan Binatu",Asia/Jakarta,YES,0,0.0,None,https://www.google.com/maps?cid=10370194359049638141,3.7767958,98.6845753,0,0,"Minggu: [07.30-21.00], Senin: [07.30-21.00], Selasa: [07.30-21.00], Rabu: [07.30",https://lh5.googleusercontent.com/p/AF1QipNQJDkx2aBUaGfTZJ5ic4tr-qXvnv8r1chcbopr,ChIJ7SHriKDNNjAR_dDpbtNU6o8,+62 813-6169-4869
Laundry Box,"Jl. Bambu, Durian, Kec. Medan Tim., Kota Medan, Sumatera Utara",Layanan Binatu,Asia/Jakarta,YES,166,4.9,https://search.google.com/local/reviews?placeid=ChIJTXT6rB4xMTARyaZJL9_i0YA&q=la,https://www.google.com/maps?cid=9282449755186243273,3.604784,98.6801335,0,0,"Minggu: [08.00-20.00], Senin: [08.00-20.00], Selasa: [08.00-20.00], Rabu: [08.00",https://lh5.googleusercontent.com/p/AF1QipPM0sAp14nvq71qnaVLzVr9GvXlh85QBX-EocXK,ChIJTXT6rB4xMTARyaZJL9_i0YA,+62 812-6334-1114
Verona Laundry,"Jl. Bambu II No.70, Durian, Kec. Medan Tim., Kota Medan, Sumatera Utara 20235",Binatu,Asia/Jakarta,YES,53,4.5,https://search.google.com/local/reviews?placeid=ChIJ_dyhMOwxMTAR-NC2gQsQN8M&q=la,https://www.google.com/maps?cid=14066729602721960184,3.6073604,98.6775648,0,0,"Minggu: [Tutup], Senin: [07.00-18.00], Selasa: [07.00-18.00], Rabu: [07.00-18.00",https://lh5.googleusercontent.com/p/AF1QipO4las4DH_K6t5d1omzkZsCqF4FfjKHqTsHzqgS,ChIJ_dyhMOwxMTAR-NC2gQsQN8M,+62 61 6636676
Aurora Laundry Express,None,"Binatu, Service establishment, Layanan Binatu",Asia/Jakarta,YES,1,5.0,https://search.google.com/local/reviews?placeid=ChIJhQchVo8zMTARTb3D3qO2d6M&q=la,https://www.google.com/maps?cid=11779084165344116045,-2.44565,117.8888,0,0,"Minggu: [08.00-20.00], Senin: [08.00-20.00], Selasa: [08.00-20.00], Rabu: [08.00",None,ChIJhQchVo8zMTARTb3D3qO2d6M,+62 821-6365-0188
Laundry Medan ( Brilliant Laundry),"JMRC+Q2W, Jl. Alumunium II, Tj. Mulia, Kec. Medan Deli, Kota Medan, Sumatera Uta",Binatu Cucian Kering,Asia/Jakarta,NO,2,3.5,https://search.google.com/local/reviews?placeid=ChIJiVtslnIyMTARInV39e9uUTo&q=la,https://www.google.com/maps?cid=4202261904207869218,3.6419831,98.6700865,0,0,None,https://streetviewpixels-pa.googleapis.com/v1/thumbnail?panoid=CkUdx2uzxaF3TEdbd,ChIJiVtslnIyMTARInV39e9uUTo,+62 853-6230-0075
Balqies Laundry,"JMRG+PGF, Jl. Alumunium IV, Tj. Mulia, Kec. Medan Deli, Kota Medan, Sumatera Uta",Binatu,Asia/Jakarta,NO,1,5.0,https://search.google.com/local/reviews?placeid=ChIJj0HpoWwyMTARLYSnGnaq_kY&q=la,https://www.google.com/maps?cid=5115713650969510957,3.64181,98.6762971,0,0,"Minggu: [08.00-18.00], Senin: [08.00-18.00], Selasa: [08.00-18.00], Rabu: [08.00",https://streetviewpixels-pa.googleapis.com/v1/thumbnail?panoid=6gX9ppMtgvdwT1MH1,ChIJj0HpoWwyMTARLYSnGnaq_kY,+62 823-7012-6866
Ninis Laundry,"Jl. Kawat 3 No.225, Tj. Mulia Hilir, Kec. Medan Deli, Kota Medan, Sumatera Utara",Layanan Binatu,Asia/Jakarta,YES,1,5.0,https://search.google.com/local/reviews?placeid=ChIJLwpF4HEyMTARdJhekHArQbQ&q=la,https://www.google.com/maps?cid=12988710562771671156,3.6467884,98.6709416,0,0,"Minggu: [Tutup], Senin: [09.00-17.00], Selasa: [09.00-17.00], Rabu: [09.00-17.00",https://lh5.googleusercontent.com/p/AF1QipOCazCkPD0ZLNPB1u0jkFjVwMskBvImv8uXP9ST,ChIJLwpF4HEyMTARdJhekHArQbQ,None
Deli Laundry,"Jl. Perbatasan No.66, Sitirejo II, Kec. Medan Amplas, Kota Medan, Sumatera Utara",Binatu,Asia/Jakarta,YES,0,0.0,None,https://www.google.com/maps?cid=12183166972924822127,3.5488884,98.69467,0,0,"Minggu: [07.00-21.00], Senin: [07.00-21.00], Selasa: [07.00-21.00], Rabu: [07.00",https://lh5.googleusercontent.com/p/AF1QipPkVk-SiiRd2jv74T7vtp0Pc5purmC7TCjoQn9S,ChIJD-EliCYxMTARb4J0DNBNE6k,+62 823-6162-0001
Dilla Laundry,"Jl. Sidomulyo, Tj. Mulia, Kec. Medan Deli, Kota Medan, Sumatera Utara 20242",Layanan Binatu,Asia/Jakarta,YES,2,5.0,https://search.google.com/local/reviews?placeid=ChIJyRBh_fUtMTARP4zd0Gfrk3k&q=la,https://www.google.com/maps?cid=8760604531284085823,3.6635746,98.6590879,0,0,"Minggu: [07.30-21.00], Senin: [07.30-21.00], Selasa: [07.30-21.00], Rabu: [07.30",https://lh5.googleusercontent.com/p/AF1QipMifJA0zo4BHIzTCpgNZiEWYhv4_q-oIb4GFN4z,ChIJyRBh_fUtMTARP4zd0Gfrk3k,+62 821-7368-2405
Laundry The Daily Wash Denai 2,"Jl. Denai No.69, Tegal Sari Mandala I, Kec. Medan Denai, Kota Medan, Sumatera Ut",Layanan Binatu,Asia/Jakarta,YES,10,5.0,https://search.google.com/local/reviews?placeid=ChIJgYk1MEcxMTARymlvWCO424A&q=la,https://www.google.com/maps?cid=9285217518701472202,3.5820673,98.7079218,0,0,"Minggu: [07.00-23.00], Senin: [07.00-22.00], Selasa: [07.00-22.00], Rabu: [07.00",https://lh5.googleusercontent.com/p/AF1QipO0qQ_hiRrn1a4smZyxIaauFE4A3l5TqJ5HdfJF,ChIJgYk1MEcxMTARymlvWCO424A,None
Laundry The Daily Wash Denai 1,"Jl. Denai No.213A, Tegal Sari Mandala II, Kec. Medan Denai, Kota Medan, Sumatera","Binatu, Layanan Binatu",Asia/Jakarta,YES,28,4.9,https://search.google.com/local/reviews?placeid=ChIJkwraGwIxMTAR2f0eZJXDjjQ&q=la,https://www.google.com/maps?cid=3787179383062461913,3.581648,98.7209769,0,0,"Minggu: [07.00-22.00], Senin: [07.00-22.00], Selasa: [07.00-22.00], Rabu: [07.00",https://lh5.googleusercontent.com/p/AF1QipOLGyQHb0x8xE2TCWYcS0ukFglK0MK1TwGVK4nS,ChIJkwraGwIxMTAR2f0eZJXDjjQ,+62 823-1246-4499
Laundry denai 88,"Jl. Denai No.98, Tegal Sari I, Kec. Medan Area, Kota Medan, Sumatera Utara 20227",Binatu,Asia/Jakarta,NO,1,5.0,https://search.google.com/local/reviews?placeid=ChIJYc3QIbIxMTARkeJwL5kAtOM&q=la,https://www.google.com/maps?cid=16407740000343483025,3.5818587,98.7069625,0,0,"Minggu: [07.45-19.45], Senin: [07.45-19.45], Selasa: [07.45-19.45], Rabu: [07.45",https://lh5.googleusercontent.com/p/AF1QipPKDyMKyIYyvbgez_bJNWhppocEzw5ftSAyAEji,ChIJYc3QIbIxMTARkeJwL5kAtOM,+62 852-6781-7646
Jwash Laundry Express,"Jl. Denai No.184, Tegal Sari Mandala III, Kec. Medan Denai, Kota Medan, Sumatera",Binatu,Asia/Jakarta,YES,8,5.0,https://search.google.com/local/reviews?placeid=ChIJP2ENADUxMTARxMlr6ptIQ4s&q=la,https://www.google.com/maps?cid=10034944229201660356,3.5813723,98.7188134,0,0,"Minggu: [08.00-19.30], Senin: [07.30-19.30], Selasa: [07.30-19.30], Rabu: [07.30",https://lh5.googleusercontent.com/p/AF1QipNXGYjpHLLXj3SsN626MJvSysvzxikmo1GTs2E1,ChIJP2ENADUxMTARxMlr6ptIQ4s,+62 813-6181-1818
Flowash Laundry Medan,"Jl. Selam V No.18A, Tegal Sari Mandala I, Kec. Medan Denai, Kota Medan, Sumatera",Binatu,Asia/Jakarta,NO,3,5.0,https://search.google.com/local/reviews?placeid=ChIJ_bE0MHgxMTAR-BZtq2vsw4U&q=la,https://www.google.com/maps?cid=9638807574684702456,3.5842984,98.7098489,0,0,None,https://lh5.googleusercontent.com/p/AF1QipOX0izOuzLw5GIBYq8_zbShQxlUTvAenmyqFBI0,ChIJ_bE0MHgxMTAR-BZtq2vsw4U,None
Denai Coin Laundry,"Jl. Denai No.181 A 02, Tegal Sari Mandala III, Kec. Medan Denai, Kota Medan, Sum",Layanan Binatu,Asia/Jakarta,NO,1,5.0,https://search.google.com/local/reviews?placeid=ChIJK7kozdkxMTARHyyQTtgifUo&q=la,https://www.google.com/maps?cid=5367484643321850911,3.5817388,98.7184719,0,0,"Minggu: [08.00-21.00], Senin: [08.00-21.00], Selasa: [08.00-21.00], Rabu: [08.00",https://lh5.googleusercontent.com/p/AF1QipNz5J0dSefM1tWh338uFNP1iZCa0-Zd-fgpOOo0,ChIJK7kozdkxMTARHyyQTtgifUo,+62 822-7257-3458
TOP LAUNDRY MEDAN,"Jalan Raya Menteng 240 A Simpg, Gg. Mangga, Binjai, Kec. Medan Denai, Kota Medan",Binatu Cucian Kering,Asia/Jakarta,YES,30,4.7,https://search.google.com/local/reviews?placeid=ChIJsb0duVkwMTARIuog6AOVKng&q=la,https://www.google.com/maps?cid=8658897077585111586,3.5682266,98.709789,0,0,"Minggu: [08.00-20.00], Senin: [08.00-20.00], Selasa: [08.00-20.00], Rabu: [08.00",https://lh5.googleusercontent.com/p/AF1QipNnu94aEZeOZ13_rm4aJzB8dEQe6gddfGoeToKx,ChIJsb0duVkwMTARIuog6AOVKng,+62 813-7044-7133
PULCLEAN LAUNDRY EXPERT,"Jl. Denai, Tegal Sari Mandala II, Kec. Medan Denai, Kota Medan, Sumatera Utara","Layanan Binatu, Binatu",Asia/Jakarta,YES,13,5.0,https://search.google.com/local/reviews?placeid=ChIJuR0TUQUxMTARDBWtLd7tBiU&q=la,https://www.google.com/maps?cid=2668081367768438028,3.5815366,98.7211491,0,0,"Minggu: [07.30-22.00], Senin: [07.30-22.00], Selasa: [07.30-22.00], Rabu: [07.30",https://lh5.googleusercontent.com/p/AF1QipN_HxD7R2JrMvKs3MIU9J7U27IKg28JMj9mpqhE,ChIJuR0TUQUxMTARDBWtLd7tBiU,+62 822-9010-0700
Advilaundry,"Jl. Denai No.206, Tegal Sari Mandala II, Kec. Medan Denai, Kota Medan, Sumatera ",Layanan Binatu,Asia/Jakarta,NO,4,5.0,https://search.google.com/local/reviews?placeid=ChIJe6wbCe0xMTAR1v23GY7wBI4&q=la,https://www.google.com/maps?cid=10233568746400120278,3.5813345,98.7201559,0,0,None,https://lh5.googleusercontent.com/p/AF1QipOnlPnLC7CwLh4mLnX56Cm7eL5bKddRLk3IYlY2,ChIJe6wbCe0xMTAR1v23GY7wBI4,None
Monic Laundry,"HPFG+5WX, Jl. Jermal XII, Denai, Kec. Medan Denai, Kota Medan, Sumatera Utara 20",Binatu,Asia/Jakarta,NO,3,4.7,https://search.google.com/local/reviews?placeid=ChIJPwVBmN0wMTARNxBPcmhaspw&q=la,https://www.google.com/maps?cid=11291186620412137527,3.57298,98.7273699,0,0,None,https://lh3.googleusercontent.com/gps-proxy/ALd4DhF162mIQfCR5E5febi1mU0nV877U_sl,ChIJPwVBmN0wMTARNxBPcmhaspw,+62 812-6554-1844
Fresh Laundry,"Jl. Bahagia By Pass No.5, Sudirejo I, Kec. Medan Kota, Kota Medan, Sumatera Utar",Binatu,Asia/Jakarta,NO,18,4.5,https://search.google.com/local/reviews?placeid=ChIJGWb_ll8wMTARU4C5HxnIgcA&q=la,https://www.google.com/maps?cid=13871588337509826643,3.5618932,98.7028277,0,0,"Minggu: [Tutup], Senin: [08.00-21.00], Selasa: [08.00-21.00], Rabu: [08.00-21.00",https://lh5.googleusercontent.com/p/AF1QipMDFbbXgZlRzZl16ilTs-3wlpjBa0uKoUxWSWzK,ChIJGWb_ll8wMTARU4C5HxnIgcA,+62 813-7568-5220
Daily Fresh Laundry Express,"Jl. Turi No.92F, Sudirejo I, Kec. Medan Kota, Kota Medan, Sumatera Utara 20217",Binatu Cucian Kering,Asia/Jakarta,YES,1,5.0,https://search.google.com/local/reviews?placeid=ChIJfbIW7esxMTARdzxOhfdbUyQ&q=la,https://www.google.com/maps?cid=2617536927083936887,3.5627554,98.7008391,0,0,"Minggu: [07.40-21.30], Senin: [07.40-21.30], Selasa: [07.40-21.30], Rabu: [07.40",https://lh5.googleusercontent.com/p/AF1QipOIKx6PGyxBrnjkSZ_G1AxjKdqVOnwIQ60JHud1,ChIJfbIW7esxMTARdzxOhfdbUyQ,+62 859-1066-77172
Seva Premium Laundry,"Jl. Bahagia By Pass No.11-13, Sudirejo I, Kec. Medan Kota, Kota Medan, Sumatera ","Layanan Binatu, Binatu Cucian Kering",Asia/Jakarta,YES,4,5.0,https://search.google.com/local/reviews?placeid=ChIJ2UvJmeMxMTARsDu86L_TC7o&q=la,https://www.google.com/maps?cid=13406041536995277744,3.5604953,98.7030652,0,0,"Minggu: [07.45-21.30], Senin: [07.45-21.30], Selasa: [07.45-21.30], Rabu: [07.45",https://lh5.googleusercontent.com/p/AF1QipOF93a8aHqHzQsSdfb5jRBKVHO-LlPAUdVYhsKq,ChIJ2UvJmeMxMTARsDu86L_TC7o,+62 831-5383-5131
Laundry Express,"HM9X+9HM, Jl. HM. Joni, Teladan Tim., Kec. Medan Kota, Kota Medan, Sumatera Utar",Binatu,Asia/Jakarta,NO,10,4.5,https://search.google.com/local/reviews?placeid=ChIJI4PTiFkwMTARMnvNGOrdoE0&q=la,https://www.google.com/maps?cid=5593714734702361394,3.568469,98.6989213,0,0,None,https://lh3.googleusercontent.com/gps-proxy/ALd4DhGcPQsLiC6INjfq2Qe8LmKB-TA_bV4E,ChIJI4PTiFkwMTARMnvNGOrdoE0,+62 61 91326491
Nusantara Wash Coin Laundry,"Jl Letjen Haryono MT No.186 -N, Pusat Pasar, Medan Kota, Medan City, North Sumat",Binatu,Asia/Jakarta,NO,35,4.8,https://search.google.com/local/reviews?placeid=ChIJV2PK77AxMTARr1g-56GYRXQ&q=la,https://www.google.com/maps?cid=8378270502929455279,3.5884541,98.6894721,0,0,"Minggu: [Tutup], Senin: [08.00-18.30], Selasa: [08.00-18.30], Rabu: [08.00-18.30",https://lh5.googleusercontent.com/p/AF1QipPXK5v681eDUH9WvtRPd32oFk_4bJ7NEa7BAsXy,ChIJV2PK77AxMTARr1g-56GYRXQ,+62 813-6021-5250
Habib LAUNDRY,"komplek fortune, Jl. Bahagia No.1c, Teladan Tim., Kec. Medan Kota, Kota Medan, S",Binatu,Asia/Jakarta,NO,14,4.6,https://search.google.com/local/reviews?placeid=ChIJMxqJTjoxMTARXq-ByKa-qI4&q=la,https://www.google.com/maps?cid=10279675773010947934,3.5662462,98.7026101,0,0,"Minggu: [08.00-22.00], Senin: [08.00-22.00], Selasa: [08.00-22.00], Rabu: [08.00",https://lh5.googleusercontent.com/p/AF1QipNJ2ru7Qadxaq8kys7o7wgp5zTY4kdQetu2oO-H,ChIJMxqJTjoxMTARXq-ByKa-qI4,+62 811-6072-013
Pengen Laundry,"JI.HM.Joni No.100 Teladan Timur, Medan Kota, Teladan Tim., Kec. Medan Kota, Kota","Binatu, Binatu Cucian Kering",Asia/Jakarta,YES,65,4.8,https://search.google.com/local/reviews?placeid=ChIJDXNUO1owMTARioAPS1TmJO4&q=la,https://www.google.com/maps?cid=17160093729899380874,3.568344,98.7058274,0,0,"Minggu: [08.00-20.00], Senin: [08.00-20.00], Selasa: [08.00-20.00], Rabu: [08.00",https://lh5.googleusercontent.com/p/AF1QipPpZwMORU7hIVzS3bQZZyKMp_iOdgOepzkMuLVn,ChIJDXNUO1owMTARioAPS1TmJO4,+62 823-6402-1910
Utama Laundry Medan (Wet Cleaning & Dry Cleaning,"Jl. Utama No.2, Kotamatsum III, Kec. Medan Kota, Kota Medan, Sumatera Utara 2021",Binatu,Asia/Jakarta,YES,7,5.0,https://search.google.com/local/reviews?placeid=ChIJqZz7J24xMTARu3zpdT9vT_s&q=la,https://www.google.com/maps?cid=18108814945031912635,3.5742077,98.6890597,0,0,"Minggu: [08.00-20.00], Senin: [08.00-20.00], Selasa: [08.00-20.00], Rabu: [08.00",https://lh5.googleusercontent.com/p/AF1QipNKhf9OSgFID79BY3llhYhVW-lH4C7S6x9GHYtZ,ChIJqZz7J24xMTARu3zpdT9vT_s,+62 811-6060-0911
Purple Laundry Medan Johor,"Jl. Karya Jaya No.171b, Gedung Johor, Kec. Medan Johor, Kota Medan, Sumatera Uta",Layanan Binatu,Asia/Jakarta,NO,9,5.0,https://search.google.com/local/reviews?placeid=ChIJjZsJ0_Y7MTARCO9wfhESLvA&q=la,https://www.google.com/maps?cid=17306790284376469256,3.5253772,98.6773783,0,0,"Minggu: [Tutup], Senin: [08.00-21.00], Selasa: [08.00-21.00], Rabu: [08.00-21.00",https://lh5.googleusercontent.com/p/AF1QipMxSeaUrxOQn7EquVP2ucghmZvsYN7STVJ3tX-e,ChIJjZsJ0_Y7MTARCO9wfhESLvA,+62 811-656-512
Berkah Laundry,"Jl. Eka Rasmi No.49, Gedung Johor, Kec. Medan Johor, Kota Medan, Sumatera Utara ",Layanan Binatu,Asia/Jakarta,NO,18,5.0,https://search.google.com/local/reviews?placeid=ChIJx-mewYE7MTAR9BTpZvlg_EE&q=la,https://www.google.com/maps?cid=4754781930886075636,3.524378,98.6710824,0,0,"Minggu: [08.30-18.00], Senin: [08.30-18.00], Selasa: [08.00-18.00], Rabu: [08.30",https://lh5.googleusercontent.com/p/AF1QipOM2bQ1u70KpFE48L4Xb4c_V1AEGcN13lpFoKY=,ChIJx-mewYE7MTAR9BTpZvlg_EE,+62 812-6256-9531
Family Laundry Express,"Jl. Karya Jaya No.252, Gedung Johor, Kec. Medan Johor, Kota Medan, Sumatera Utar",Binatu,Asia/Jakarta,NO,23,4.7,https://search.google.com/local/reviews?placeid=ChIJeUeVJCE7MTARR-1CvkexWHc&q=la,https://www.google.com/maps?cid=8599818410156813639,3.5196207,98.6756436,0,0,"Minggu: [07.00-22.00], Senin: [07.00-22.00], Selasa: [07.00-22.00], Rabu: [07.00",https://lh5.googleusercontent.com/p/AF1QipN0RUyQal0uhtb9Sg36h4Un7sHjtmYZIdPV4whI,ChIJeUeVJCE7MTARR-1CvkexWHc,None
5asai Platinum Laundry Medan,"Jl. Karya Wisata No.33E, Pangkalan Masyhur, Kec. Medan Johor, Kota Medan, Sumate",Binatu,Asia/Jakarta,YES,13,4.7,https://search.google.com/local/reviews?placeid=ChIJpQt2gas6MTAREzuYD13AlMw&q=la,https://www.google.com/maps?cid=14741618986216602387,3.535985,98.663216,0,0,"Minggu: [Tutup], Senin: [08.00-21.30], Selasa: [08.00-21.30], Rabu: [08.00-21.30",https://lh5.googleusercontent.com/p/AF1QipOdTP7FGOiuQKLVPmDZrbZ7NmL3YBt_Y_ZhdvGc,ChIJpQt2gas6MTAREzuYD13AlMw,+62 813-7062-4517
SYAKIRAH COIN LAUNDRY,"Jl. Karya wisata Komplek ruko jip 2 No. 13, Gedung Johor, Kec. Medan Johor, Kota",Binatu Cucian Kering,Asia/Jakarta,YES,10,4.8,https://search.google.com/local/reviews?placeid=ChIJiR1pY547MTARUyVSR-B51XA&q=la,https://www.google.com/maps?cid=8130538706463499603,3.5233763,98.662629,0,0,"Minggu: [Tutup], Senin: [08.00-21.00], Selasa: [08.00-21.00], Rabu: [08.00-21.00",https://lh5.googleusercontent.com/p/AF1QipOOSnIHTBSnJzGGpifAvPhVvIj8vKAGmsiywTpo,ChIJiR1pY547MTARUyVSR-B51XA,+62 823-7243-3577
Queen Laundry & Dry Clean,"Jl. Karya Darma No.3 A, Pangkalan Masyhur, Kec. Medan Johor, Kota Medan, Sumater",Layanan Binatu,Asia/Jakarta,NO,4,5.0,https://search.google.com/local/reviews?placeid=ChIJcUKuYltFERARrvCVPrWpeT0&q=la,https://www.google.com/maps?cid=4429758304399782062,3.529767,98.6770389,0,0,None,https://lh3.googleusercontent.com/gps-proxy/ALd4DhFCxUgGyBAgmTypunTy1d0jDJvDGYD_,ChIJcUKuYltFERARrvCVPrWpeT0,+62 821-6880-9829
The daily wash laundromat,"Jl. Karya Jaya No.254 D, Gedung Johor, Kec. Medan Johor, Kota Medan, Sumatera Ut",Binatu,Asia/Jakarta,YES,25,4.7,https://search.google.com/local/reviews?placeid=ChIJD4OOMuU7MTARrueae3AhPqE&q=la,https://www.google.com/maps?cid=11618760855656261550,3.5194896,98.6756219,0,0,"Minggu: [07.00-23.00], Senin: [07.00-23.00], Selasa: [07.00-23.00], Rabu: [07.00",https://lh5.googleusercontent.com/p/AF1QipPhv5efiK94qfl6HIcMR9CPtJfkKcePWQqMCqfE,ChIJD4OOMuU7MTARrueae3AhPqE,+62 822-7304-9638
Laundry Syariah Johor,"Jl. Karya Kasih, Pangkalan Masyhur, Kec. Medan Johor, Kota Medan, Sumatera Utara",Binatu,Asia/Jakarta,YES,8,5.0,https://search.google.com/local/reviews?placeid=ChIJuf3_tk87MTAR2VDfDd4jQiE&q=la,https://www.google.com/maps?cid=2396517388336976089,3.5337743,98.6687527,0,0,"Minggu: [08.00-20.30], Senin: [08.00-20.30], Selasa: [08.00-20.30], Rabu: [08.00",https://lh5.googleusercontent.com/p/AF1QipN2eDJIM1KbIMdisyPTXpqAdOmnKVY5JfsFVi0Y,ChIJuf3_tk87MTAR2VDfDd4jQiE,None
Thareeq Rumah Laundry,"Jl. Karya Jaya No.256 B, Gedung Johor, Kec. Medan Johor, Kota Medan, Sumatera Ut",Binatu,Asia/Jakarta,NO,2,5.0,https://search.google.com/local/reviews?placeid=ChIJPVCOQMc6MTARRO61A0sZlL8&q=la,https://www.google.com/maps?cid=13804686567772909124,3.5192085,98.6755799,0,0,None,https://lh3.googleusercontent.com/gps-proxy/ALd4DhG51C6kpDgIo0GFjneyOQQ3QURAD4bI,ChIJPVCOQMc6MTARRO61A0sZlL8,+62 61 7879434
TheWashPort Laundry Medan,"Jl. Jambi (simpang, Jl. Wahidin No.18C, Pandau Hulu I, Kec. Medan Kota, Kota Med",Layanan Binatu,Asia/Jakarta,YES,21,5.0,https://search.google.com/local/reviews?placeid=ChIJV58TzbExMTAR2NcxvuDkDeQ&q=la,https://www.google.com/maps?cid=16433042269259552728,3.5876732,98.6923387,0,0,"Minggu: [Tutup], Senin: [09.00-17.00], Selasa: [09.00-17.00], Rabu: [09.00-17.00",https://lh5.googleusercontent.com/p/AF1QipPdGpUxfJ2nROhBWzOw6E87iBWPdCJMDbdJOM6G,ChIJV58TzbExMTAR2NcxvuDkDeQ,+62 61 4568029
RIO LAUNDRY,"Jl.rawe 1 / pancing V simpang kebun lada, Martubung, Kec. Medan Labuhan, Kota Me",Binatu Cucian Kering,Asia/Jakarta,NO,12,5.0,https://search.google.com/local/reviews?placeid=ChIJ62Lr3MQyMTARmuuPOm17sQY&q=la,https://www.google.com/maps?cid=482302344169515930,3.6874737,98.6919121,0,0,"Minggu: [Buka 24 jam], Senin: [Buka 24 jam], Selasa: [Buka 24 jam], Rabu: [Buka ",https://lh5.googleusercontent.com/p/AF1QipNxsaDuhrQXjPPmvwsypy2k4sTwl6bqOjq6rsgP,ChIJ62Lr3MQyMTARmuuPOm17sQY,+62 821-6886-7014
Chico Laundry,"MMVF+F2V, Jl. KL. Yos Sudarso, Besar, Kec. Medan Labuhan, Kota Medan, Sumatera U",Binatu,Asia/Jakarta,NO,5,4.8,https://search.google.com/local/reviews?placeid=ChIJDZI5trEyMTARJcCiOMhpgOQ&q=la,https://www.google.com/maps?cid=16465276546331099173,3.6937288,98.6725548,0,0,None,https://lh3.googleusercontent.com/gps-proxy/ALd4DhFQ2rxBkzplqXt2vpC0aj7nH_Ngz06k,ChIJDZI5trEyMTARJcCiOMhpgOQ,+62 823-6333-1009
Lautan Laundry,"Jl. Yos Sudarso, KM. 19,5 No.28, Pekan Labuhan, Kec. Medan Labuhan, Kota Medan, ",Binatu Cucian Kering,Asia/Jakarta,YES,2,4.5,https://search.google.com/local/reviews?placeid=ChIJaaX18-3NNjARWsZxIAfQw6w&q=la,https://www.google.com/maps?cid=12449022524009858650,3.7409346,98.6750235,0,0,"Minggu: [08.00-20.00], Senin: [08.00-20.00], Selasa: [08.00-20.00], Rabu: [08.00",https://lh5.googleusercontent.com/p/AF1QipNkeuyRbmuT2uLwYk1ErzVMEAaRhb2c6Btrjzxz,ChIJaaX18-3NNjARWsZxIAfQw6w,+62 852-7247-5358
EL LAUNDRY,"Jl. Jala Raya, Besar, Kec. Medan Labuhan, Kota Medan, Sumatera Utara 20251",Binatu,Asia/Jakarta,YES,13,4.9,https://search.google.com/local/reviews?placeid=ChIJYanHOr4zMTARN86f4f81M8Y&q=la,https://www.google.com/maps?cid=14281818216440254007,3.6925743,98.6920614,0,0,"Minggu: [Tutup], Senin: [08.00-20.00], Selasa: [08.00-20.00], Rabu: [08.00-20.00",https://lh5.googleusercontent.com/p/AF1QipOW9b0kw2f4n7_rBHYS7AkU--hu_TqxO6BCdWXC,ChIJYanHOr4zMTARN86f4f81M8Y,+62 895-2414-5507
NASUTION LAUNDRY,"Jalan Kol. Yos Sudarso Km 19,5 RT.5, Pekan Labuhan, Kec. Medan Labuhan, Kota Med",Layanan Binatu,Asia/Jakarta,NO,1,5.0,https://search.google.com/local/reviews?placeid=ChIJiUp7fyrNNjARcyel0TR_wjg&q=la,https://www.google.com/maps?cid=4089971276438120307,3.7459303,98.6742591,0,0,"Minggu: [07.00-20.00], Senin: [07.00-20.00], Selasa: [07.00-20.00], Rabu: [07.00",https://streetviewpixels-pa.googleapis.com/v1/thumbnail?panoid=1BCjT4nf_1jXeFcHo,ChIJiUp7fyrNNjARcyel0TR_wjg,+62 812-6088-2455
SS Laundry Express,"PMVF+PV2, Pekan Labuhan, Kec. Medan Labuhan, Kota Medan, Sumatera Utara 20253",Layanan Binatu,Asia/Jakarta,NO,0,0.0,None,https://www.google.com/maps?cid=6397816415588229615,3.7442542,98.6746504,0,0,"Minggu: [07.00-21.00], Senin: [07.00-21.00], Selasa: [07.00-21.00], Rabu: [07.00",https://lh5.googleusercontent.com/p/AF1QipN3BPcBLmxPg8NDZVz187Z662oOE0IzvsF4Sp5c,ChIJf2fAZOXNNjAR76FMBSKcyVg,+62 821-6444-5591
Zio Laundry (Martubung),"Jl. Tuar Raya, Martubung, Kec. Medan Labuhan, Kota Medan, Sumatera Utara 20252","Layanan Kebersihan, Binatu Cucian Kering, Toko Mesin Cuci & Pengering",Asia/Jakarta,YES,1,5.0,https://search.google.com/local/reviews?placeid=ChIJD_b_ocozMTARMGhD_OUnpR4&q=la,https://www.google.com/maps?cid=2208215061028366384,3.6916664,98.6908475,0,0,"Minggu: [08.00-21.00], Senin: [08.00-21.00], Selasa: [08.00-21.00], Rabu: [08.00",https://lh5.googleusercontent.com/p/AF1QipO2fzIY47HQrs1BAKqDfLmAAClQu9DvIFYgqDMC,ChIJD_b_ocozMTARMGhD_OUnpR4,+62 822-5771-0257
WarNa Laundry Express & Satuan,"Jl. Pancing I No.114, Besar, Kec. Medan Labuhan, Kota Medan, Sumatera Utara 2025",Layanan Binatu,Asia/Jakarta,NO,6,5.0,https://search.google.com/local/reviews?placeid=ChIJoan9wscyMTARMiRA99w6vpc&q=la,https://www.google.com/maps?cid=10934241666017535026,3.6901115,98.684215,0,0,"Minggu: [08.00-18.00], Senin: [08.00-18.00], Selasa: [08.00-18.00], Rabu: [08.00",https://lh5.googleusercontent.com/p/AF1QipOx08Fu0fCx-oEh3voTtfWDvWGiLRjTnokEeGBv,ChIJoan9wscyMTARMiRA99w6vpc,+62 61 6853824
OK'S,"PM6J+7QF, Jalan Teluk Haru Cingwan Dalam, Martubung, Kec. Medan Labuhan, Kota Me",Layanan Binatu,Asia/Jakarta,NO,0,0.0,None,https://www.google.com/maps?cid=14760584620822846767,3.7106986,98.6819323,0,0,"Minggu: [07.30-20.00], Senin: [07.30-20.00], Selasa: [07.30-20.00], Rabu: [07.30",https://lh5.googleusercontent.com/p/AF1QipOY-tChBKgf6kyF3Epvneqfc6CzhYba_aGjx5v0,ChIJ1TFshGLNNjARL109-YEh2Mw,+62 878-1589-8303
Laundry Nady,"Jl. Pacing 1 Martubung, Medan Labuhan, Besar, Kec. Medan Labuhan, Kota Medan, Su",Binatu,Asia/Jakarta,NO,5,4.2,https://search.google.com/local/reviews?placeid=ChIJ7-QBDMgyMTARkSwg-T6DewI&q=la,https://www.google.com/maps?cid=178880916702112913,3.6909426,98.682949,0,0,"Minggu: [08.00-22.00], Senin: [08.00-22.00], Selasa: [08.00-22.00], Rabu: [08.00",https://lh5.googleusercontent.com/p/AF1QipOozcDksHdcJFgAB1YIvydWPV04Rfdd_RcH4XZe,ChIJ7-QBDMgyMTARkSwg-T6DewI,+62 813-2286-0824
Laundry The Daily Wash Katamso,"GMXQ+G86 Pas Depan Suzuya, Jl. Brigjend Katamso, Kp. Baru, Kec. Medan Maimun, Ko",Layanan Binatu,Asia/Jakarta,NO,17,5.0,https://search.google.com/local/reviews?placeid=ChIJC4X50MIxMTAR9w-5LjN9iks&q=la,https://www.google.com/maps?cid=5443300758411350007,3.5487884,98.6882624,0,0,"Minggu: [07.00-22.00], Senin: [07.00-22.00], Selasa: [07.00-22.00], Rabu: [07.00",https://lh5.googleusercontent.com/p/AF1QipOq5Di783lFMF4o2X0Ue3mr3wWkaec7dTZfItc7,ChIJC4X50MIxMTAR9w-5LjN9iks,None
Happy Clean Laundry,"Jalan H. Misbah, Komplek Multatuli Blok A No. 50, Hamdan, Kec. Medan Maimun, Kot",Binatu,Asia/Jakarta,YES,13,4.5,https://search.google.com/local/reviews?placeid=ChIJnUIx3jUwMTARfIzHFydCmbg&q=la,https://www.google.com/maps?cid=13301735710085581948,3.575565,98.680471,0,0,"Minggu: [08.30-17.00], Senin: [08.30-19.30], Selasa: [08.30-19.30], Rabu: [09.00",https://lh5.googleusercontent.com/p/AF1QipN-vUbBuvbqSYr3uz9PiUCdC_YT3mE0mjEJrtI5,ChIJnUIx3jUwMTARfIzHFydCmbg,+62 812-8326-8992
Naynay Loundry Coin,"Jl. Brigjend Katamso No.351, Sei Mati, Kec. Medan Maimun, Kota Medan, Sumatera U",Layanan Binatu,Asia/Jakarta,YES,1,5.0,https://search.google.com/local/reviews?placeid=ChIJeT-iY-4xMTAR_RVFVEmY1WE&q=la,https://www.google.com/maps?cid=7049708232432227837,3.5629968,98.6899852,0,0,"Minggu: [07.00-21.00], Senin: [07.00-21.00], Selasa: [07.00-21.00], Rabu: [07.00",https://lh5.googleusercontent.com/p/AF1QipNM2a_PUR1TBSBDFCHIm0JLFRWplpXx22NW4Bce,ChIJeT-iY-4xMTAR_RVFVEmY1WE,+62 812-4002-1185
PAPA COIN LAUNDRY,"Jl. Brigjend Katamso No.168 80FF, Sukaraja, Kec. Medan Maimun, Kota Medan, Sumat",Layanan Binatu,Asia/Jakarta,YES,1,5.0,https://search.google.com/local/reviews?placeid=ChIJry7i6zAxMTARvnR4zYBnTjY&q=la,https://www.google.com/maps?cid=3913178929132238014,3.5732993,98.6852934,0,0,"Minggu: [08.00-18.30], Senin: [08.00-18.30], Selasa: [08.00-18.30], Rabu: [08.00",https://lh5.googleusercontent.com/p/AF1QipNmX2mPECxfkglxgEhPzr1rosAC6wzVTEVNAGYz,ChIJry7i6zAxMTARvnR4zYBnTjY,+62 878-9338-9347
Laundry Zone,"Komplek Multatuli Indah Blok C No. 23, Jalan Multatuli, A U R, Kec. Medan Maimun",Binatu Cucian Kering,Asia/Jakarta,NO,10,4.9,https://search.google.com/local/reviews?placeid=ChIJsdpfBjYwMTARLDyo99YTFCw&q=la,https://www.google.com/maps?cid=3176185451201969196,3.5760407,98.6816328,0,0,"Minggu: [09.00-16.00], Senin: [08.30-19.00], Selasa: [08.30-19.00], Rabu: [08.30",https://lh3.googleusercontent.com/gps-proxy/ALd4DhGbfioBsJhk987q4CVzsQm0xYCj58Qw,ChIJsdpfBjYwMTARLDyo99YTFCw,+62 813-7514-5908
Verona Dry Clean Laundr,"HMM8+CMP, Jl. S. Parman, Petisah Hulu, Kec. Medan Baru, Kota Medan, Sumatera Uta",Binatu Cucian Kering,Asia/Jakarta,NO,90,4.4,https://search.google.com/local/reviews?placeid=ChIJWVin6CwwMTARwVuMmY8MYTA&q=la,https://www.google.com/maps?cid=3486081397457443777,3.5835923,98.6667148,0,0,"Minggu: [Tutup], Senin: [07.00-18.00], Selasa: [07.00-18.00], Rabu: [07.00-18.00",https://lh3.googleusercontent.com/gps-proxy/ALd4DhEe0sspyCVObT5N-WwrX7lz9BDKzxNG,ChIJWVin6CwwMTARwVuMmY8MYTA,+62 61 4158206
Juju Laundry Express,"HMFJ+M96, Hamdan, Kec. Medan Maimun, Kota Medan, Sumatera Utara 20212",Layanan Binatu,Asia/Jakarta,NO,3,5.0,https://search.google.com/local/reviews?placeid=ChIJyZonPjYwMTAR7J8vK990i40&q=la,https://www.google.com/maps?cid=10199374282961690604,3.5741569,98.6808937,0,0,"Minggu: [Tutup], Senin: [08.00-20.00], Selasa: [08.00-20.00], Rabu: [08.00-20.00",https://lh5.googleusercontent.com/p/AF1QipNPivwcQwqPbmQ5w0IEaO4y-MdPKs7orjfguwsR,ChIJyZonPjYwMTAR7J8vK990i40,+62 813-6198-3344
BUMI CLEAN,"Jl. Brigjend Katamso No.453, Kp. Baru, Kec. Medan Maimun, Kota Medan, Sumatera U",Binatu Cucian Kering,Asia/Jakarta,NO,6,5.0,https://search.google.com/local/reviews?placeid=ChIJF1rHbUIwMTARP477GhNEgsw&q=la,https://www.google.com/maps?cid=14736415779557445183,3.5662682,98.6887754,0,0,"Minggu: [09.00-18.00], Senin: [09.00-18.00], Selasa: [09.00-18.00], Rabu: [09.00",https://lh5.googleusercontent.com/p/AF1QipNzarxHmgFAXHLwE9WcFAOpw8m1fPa571GYFaS2,ChIJF1rHbUIwMTARP477GhNEgsw,+62 853-7131-8318
DUTA LAUNDRY,"Jl. Marelan Raya Ps. II, Rengas Pulau, Kec. Medan Marelan, Kota Medan, Sumatera ",Binatu,Asia/Jakarta,YES,52,4.8,https://search.google.com/local/reviews?placeid=ChIJY1qbWsAtMTARgmt-qJT48mo&q=la,https://www.google.com/maps?cid=7706495229750045570,3.6968928,98.6568771,0,0,"Minggu: [09.00-22.00], Senin: [08.00-22.00], Selasa: [08.00-22.00], Rabu: [08.00",https://lh5.googleusercontent.com/p/AF1QipM0l6veJbEIZ7s6P3cD_C_Jer6JDK9IsdtvaQL2,ChIJY1qbWsAtMTARgmt-qJT48mo,+62 852-5657-9988
mARICUCI Laundry & Dry Clean,"Jl. Abd. Sani Mutalib, RW.Lingk. 09, Terjun, Kec. Medan Marelan, Kota Medan, Sum",Layanan Binatu,Asia/Jakarta,YES,13,5.0,https://search.google.com/local/reviews?placeid=ChIJWyjzPobTNjARMosdr3SQWNk&q=la,https://www.google.com/maps?cid=15661426535009454898,3.7043388,98.6357137,0,0,"Minggu: [Tutup], Senin: [08.00-20.00], Selasa: [08.00-20.00], Rabu: [08.00-20.00",https://lh5.googleusercontent.com/p/AF1QipOf5cS_c86Pt2CrfT_-RTe7l40LfJMyZbhV2JPH,ChIJWyjzPobTNjARMosdr3SQWNk,+62 822-9103-7733
Laundry Medan - Tata Laundry,"Jl. Marelan VII No.41, Tanah Enam Ratus, Kec. Medan Marelan, Kota Medan, Sumater",Layanan Binatu,Asia/Jakarta,YES,6,5.0,https://search.google.com/local/reviews?placeid=ChIJW1u6zeAtMTAR0YPYHC-MPes&q=la,https://www.google.com/maps?cid=16950858706467718097,3.6920158,98.6522473,0,0,"Minggu: [08.00-22.00], Senin: [08.00-22.00], Selasa: [08.00-22.00], Rabu: [08.00",https://lh5.googleusercontent.com/p/AF1QipNQC1Iv32NV2iPKK7tQLOg6ldWpf6QdUl6Cxo-E,ChIJW1u6zeAtMTAR0YPYHC-MPes,+62 821-5071-0500
Berkah Express Laundry Coin,"Jl. Kapten Rahmad Buddin No.55 Pasar 5, Paya Pasir, Kec. Medan Marelan, Kota Med",Layanan Binatu,Asia/Jakarta,NO,3,4.7,https://search.google.com/local/reviews?placeid=ChIJow-KUFbTNjARdB9ygZt_U9M&q=la,https://www.google.com/maps?cid=15227655070938177396,3.7107855,98.655067,0,0,"Minggu: [Buka 24 jam], Senin: [Buka 24 jam], Selasa: [Buka 24 jam], Rabu: [Buka ",https://lh5.googleusercontent.com/p/AF1QipP1DmrphCpIz8YyoHI-dECZqk9J_hPH4BvDa-rU,ChIJow-KUFbTNjARdB9ygZt_U9M,+62 812-7571-7299
PINK LAUNDRY & DRY CLEAN,"Jalan Marelan Raya no. 242, Rengas Pulau, Medan Marelan, Tanah Enam Ratus, Kec. ",Binatu,Asia/Jakarta,NO,5,5.0,https://search.google.com/local/reviews?placeid=ChIJ4RsMk1YtMTAR5q4S_Cc8T2I&q=la,https://www.google.com/maps?cid=7083946881307553510,3.680697,98.656043,0,0,"Minggu: [08.00-18.00], Senin: [08.00-21.00], Selasa: [08.00-21.00], Rabu: [08.00",https://lh3.googleusercontent.com/gps-proxy/ALd4DhGTzRoOTUP3UbWZFt4ejaycAxdV86A_,ChIJ4RsMk1YtMTAR5q4S_Cc8T2I,+62 61 80027848
Star Wash Express Laundry,"PM35+P92, Jl. Marelan I, Rengas Pulau, Kec. Medan Marelan, Kota Medan, Sumatera ",Binatu,Asia/Jakarta,NO,1,5.0,https://search.google.com/local/reviews?placeid=ChIJ53V3Q6rSNjARR3miK70wTkE&q=la,https://www.google.com/maps?cid=4705752249687767367,3.7042502,98.6583868,0,0,None,https://streetviewpixels-pa.googleapis.com/v1/thumbnail?panoid=-tFczSToBKX_JXiBY,ChIJ53V3Q6rSNjARR3miK70wTkE,None
CAHAYA LAUNDRY,"PM38+M78, Jl. Marelan II, Rengas Pulau, Kec. Medan Marelan, Kota Medan, Sumatera",Binatu Cucian Kering,Asia/Jakarta,NO,1,5.0,https://search.google.com/local/reviews?placeid=ChIJtyhSiFPNNjARh35hdgFtTTA&q=la,https://www.google.com/maps?cid=3480557940075757191,3.70417,98.6656965,0,0,None,https://lh5.googleusercontent.com/p/AF1QipNxXL1qfdQZavX1kug1U4TqoUFXtvxZlKWq5aDE,ChIJtyhSiFPNNjARh35hdgFtTTA,None
Eriza Laundry,"MJQP+M97, Jl. Marelan Ps. 1 Rel, Terjun, Kec. Medan Marelan, Kota Medan, Sumater",Layanan Binatu,Asia/Jakarta,NO,3,5.0,https://search.google.com/local/reviews?placeid=ChIJOdZBUDgtMTARavt13eFqgCA&q=la,https://www.google.com/maps?cid=2341989324548340586,3.689172,98.6359116,0,0,None,https://streetviewpixels-pa.googleapis.com/v1/thumbnail?panoid=4aYdiIwkk-Zy0JGMZ,ChIJOdZBUDgtMTARavt13eFqgCA,None
Umma Laundry,"MMW6+QHM, Jl. Marelan VI, Rengas Pulau, Kec. Medan Marelan, Kota Medan, Sumatera",Layanan Binatu,Asia/Jakarta,NO,3,5.0,https://search.google.com/local/reviews?placeid=ChIJpy_7MaczMTARISlXXl8Ro94&q=la,https://www.google.com/maps?cid=16042685398926174497,3.6969707,98.6614374,0,0,None,https://lh5.googleusercontent.com/p/AF1QipN4rGKHE2WsIU5Az64SCZgbbs7tLZJ4YrtLNB98,ChIJpy_7MaczMTARISlXXl8Ro94,None
Family Laundry - Marelan,"Jl. Kapten Rahmad Buddin Gg. Kapok No.1, Terjun, Kec. Medan Marelan, Kota Medan,",Binatu Cucian Kering,Asia/Jakarta,YES,6,5.0,https://search.google.com/local/reviews?placeid=ChIJZ0eG19zTNjARDQl_CZEmQXk&q=la,https://www.google.com/maps?cid=8737307156446906637,3.7109531,98.6481763,0,0,"Minggu: [08.00-21.00], Senin: [08.00-21.00], Selasa: [08.00-21.00], Rabu: [08.00",https://lh5.googleusercontent.com/p/AF1QipN8k8h_6P7Q3TtWz1mY60-kwJ1RM44HpVs0ciRZ,ChIJZ0eG19zTNjARDQl_CZEmQXk,+62 812-1377-8861
Tj laundry Medan,"Jl. Perjuangan No.39 B, Sidorejo, Kec. Medan Tembung, Kota Medan, Sumatera Utara",Binatu,Asia/Jakarta,YES,9,4.6,https://search.google.com/local/reviews?placeid=ChIJ6WnVYVsxMTARiT9gFrYYKZA&q=la,https://www.google.com/maps?cid=10387861185845280649,3.6039499,98.6969499,0,0,"Minggu: [08.00-21.00], Senin: [08.00-21.00], Selasa: [08.00-21.00], Rabu: [08.00",https://lh5.googleusercontent.com/p/AF1QipMr0kxrfla0ZY3Z_3P-nk9v9GnCbTD6jZtzkoK2,ChIJ6WnVYVsxMTARiT9gFrYYKZA,+62 853-5875-0566
Coin Laundry ANDDORA,"Jl. Perjuangan No.96, Sidorejo, Kec. Medan Tembung, Kota Medan, Sumatera Utara 2",Binatu,Asia/Jakarta,NO,4,5.0,https://search.google.com/local/reviews?placeid=ChIJwfJqi1UxMTARbsut-IWYViw&q=la,https://www.google.com/maps?cid=3194908686836157294,3.6034376,98.702389,0,0,"Minggu: [08.00-20.00], Senin: [08.00-20.00], Selasa: [08.00-20.00], Rabu: [08.00",https://lh5.googleusercontent.com/p/AF1QipMZEHHu2VnqoMjAiwT0ekHFFIpzggdtme8qMp_G,ChIJwfJqi1UxMTARbsut-IWYViw,+62 813-6128-3288
Kings Laundry Express,"Jl. Perjuangan No.17B, Sei Kera Hilir I, Kec. Medan Perjuangan, Kota Medan, Suma",Binatu Cucian Kering,Asia/Jakarta,YES,1,5.0,https://search.google.com/local/reviews?placeid=ChIJb_Bop2wxMTARKZLa_WE-Qec&q=la,https://www.google.com/maps?cid=16663668686839255593,3.6037356,98.6954778,0,0,"Minggu: [07.30-22.00], Senin: [07.30-22.00], Selasa: [07.30-22.00], Rabu: [07.30",https://lh5.googleusercontent.com/p/AF1QipMDcgKHXgh1YCE5xLGQys_Okg5D_zIBRM13UBa9,ChIJb_Bop2wxMTARKZLa_WE-Qec,+62 819-9393-9531
OVER CLEAN LAUNDRY & DRYCLEAN,"Jl. Perjuangan No.65, Sidorejo, Kec. Medan Tembung, Kota Medan, Sumatera Utara 2",Binatu Cucian Kering,Asia/Jakarta,YES,1,5.0,https://search.google.com/local/reviews?placeid=ChIJxWVsFFgxMTARMHUMbJqkhfc&q=la,https://www.google.com/maps?cid=17835842882415392048,3.6038019,98.6985769,0,0,"Minggu: [07.00-22.00], Senin: [07.00-22.00], Selasa: [07.00-22.00], Rabu: [07.00",https://lh5.googleusercontent.com/p/AF1QipMG8aco2TL4O3xL1e84GakKoj6Q2K0f113WA7CV,ChIJxWVsFFgxMTARMHUMbJqkhfc,+62 812-6941-0575
Sinar Laundry,"Jl. Perjuangan No.147A, Sidorejo, Kec. Medan Tembung, Kota Medan, Sumatera Utara",Layanan Binatu,Asia/Jakarta,YES,1,5.0,https://search.google.com/local/reviews?placeid=ChIJW4IC1sIxMTARG9aWN2wvWIo&q=la,https://www.google.com/maps?cid=9968769917020198427,3.6037203,98.7041435,0,0,"Minggu: [08.00-18.00], Senin: [08.00-18.00], Selasa: [08.00-18.00], Rabu: [08.00",https://lh5.googleusercontent.com/p/AF1QipPwUh5dEl7EnlhCP2nhYc0XRc_8jj_ekhr8FSc2,ChIJW4IC1sIxMTARG9aWN2wvWIo,None
Aurum Laundry,"Jl. Perjuangan No.85 C, Sidorejo, Kec. Medan Perjuangan, Kota Medan, Sumatera Ut",Binatu,Asia/Jakarta,NO,2,5.0,https://search.google.com/local/reviews?placeid=ChIJp__I62gxMTARDRsO7_0Q1pE&q=la,https://www.google.com/maps?cid=10508605463339080461,3.6038331,98.6999975,0,0,"Minggu: [10.00-22.00], Senin: [08.00-22.00], Selasa: [08.00-22.00], Rabu: [08.00",https://streetviewpixels-pa.googleapis.com/v1/thumbnail?panoid=sRFKK6w03-mxmtqhp,ChIJp__I62gxMTARDRsO7_0Q1pE,+62 813-7117-7184
ALFI LAUNDRY,"Jl. Perjuangan No.37-B, Tj. Rejo, Kec. Medan Sunggal, Kota Medan, Sumatera Utara",Binatu,Asia/Jakarta,NO,4,5.0,https://search.google.com/local/reviews?placeid=ChIJ4bdE8UUvMTARwW85kzGLulA&q=la,https://www.google.com/maps?cid=5817114913742090177,3.5713956,98.6366221,0,0,"Minggu: [Tutup], Senin: [08.00-20.00], Selasa: [08.00-20.00], Rabu: [08.00-20.00",https://lh5.googleusercontent.com/p/AF1QipP7yUG6KPoA59AS6qfldBVvqJpqtX8k91TH14fC,ChIJ4bdE8UUvMTARwW85kzGLulA,None
Violet Laundry,"Jl. Mesjid Taufik No.30, Tegal Rejo, Kec. Medan Perjuangan, Kota Medan, Sumatera",Binatu,Asia/Jakarta,YES,11,4.7,https://search.google.com/local/reviews?placeid=ChIJPR1VTowxMTAR_Lh8Yz68HT4&q=la,https://www.google.com/maps?cid=4475940580819253500,3.6133316,98.6848393,0,0,"Minggu: [Buka 24 jam], Senin: [08.00-20.00], Selasa: [08.00-20.00], Rabu: [08.00",https://lh3.googleusercontent.com/gps-proxy/ALd4DhFEn8USwxM6r3iisib7R6YYXIjVRjSO,ChIJPR1VTowxMTAR_Lh8Yz68HT4,+62 812-6509-2307
Faiqa Laundry,"Jl. Perjuangan No.96, Tj. Rejo, Kec. Medan Sunggal, Kota Medan, Sumatera Utara 2",Layanan Binatu,Asia/Jakarta,NO,1,5.0,https://search.google.com/local/reviews?placeid=ChIJFXOUZ7AvMTARetrOO58qu0M&q=la,https://www.google.com/maps?cid=4880541484577643130,3.5721432,98.6283886,0,0,None,https://lh5.googleusercontent.com/p/AF1QipOf6kMMD8KhQfVPkD33gi6IHSl3O0VSv-pUvNAr,ChIJFXOUZ7AvMTARetrOO58qu0M,None
Sahabat laundry,"Jl. Pimpinan No.141a, Sei Kera Hilir I, Kec. Medan Perjuangan, Kota Medan, Sumat",Layanan Binatu,Asia/Jakarta,NO,1,5.0,https://search.google.com/local/reviews?placeid=ChIJT4nfUNExMTARbNEw54ZxgNQ&q=la,https://www.google.com/maps?cid=15312363557277978988,3.6017703,98.7051348,0,0,None,https://lh5.googleusercontent.com/p/AF1QipMeGBZiDlrn1IMqROaOT9vkeRRIzklNPASaBMSs,ChIJT4nfUNExMTARbNEw54ZxgNQ,None
Laundry Express Hijrah Laundry Medan,"Jl. Sekip No.66, Sekip, Kec. Medan Petisah, Kota Medan, Sumatera Utara 20118",Layanan Binatu,Asia/Jakarta,YES,25,4.8,https://search.google.com/local/reviews?placeid=ChIJdxQvn10xMTARfMEKUQG2jZ0&q=la,https://www.google.com/maps?cid=11352930352441770364,3.5984349,98.6638641,0,0,"Minggu: [07.00-21.00], Senin: [07.00-21.00], Selasa: [07.00-21.00], Rabu: [07.00",https://lh5.googleusercontent.com/p/AF1QipOpJMat5I9T6wdUivO0dKbN0Qx-D7lgesKeuBOp,ChIJdxQvn10xMTARfMEKUQG2jZ0,+62 822-8263-9035
Washio Laundry,"Jl. Rotan No.55 B, Petisah Tengah, Kec. Medan Petisah, Kota Medan, Sumatera Utar",Binatu,Asia/Jakarta,NO,10,4.7,https://search.google.com/local/reviews?placeid=ChIJiy-aLNExMTARay1jRrT59kY&q=la,https://www.google.com/maps?cid=5113548979596111211,3.5876811,98.6656679,0,0,"Minggu: [08.00-18.00], Senin: [08.00-18.00], Selasa: [08.00-18.00], Rabu: [08.00",https://lh3.googleusercontent.com/gps-proxy/ALd4DhHKcWkfixELbZuV6uHfbf5PVfFNaAUl,ChIJiy-aLNExMTARay1jRrT59kY,+62 61 88817927
Laundry The Daily Wash Gatsu,"Jl. Gatot Subroto No.123, RT.02, Petisah Tengah, Kec. Medan Petisah, Kota Medan,",Layanan Binatu,Asia/Jakarta,NO,24,4.8,https://search.google.com/local/reviews?placeid=ChIJ0278HQgxMTARfChMw80RykI&q=la,https://www.google.com/maps?cid=4812678727241312380,3.5922782,98.6705593,0,0,None,https://lh5.googleusercontent.com/p/AF1QipNXUoLjmYRJ4yaXHlJErm1pO2elalRT32eMMTs-,ChIJ0278HQgxMTARfChMw80RykI,None
Davindo Laundry & Dry Clean,"HMP9+4MH, Jl. Taruma, Petisah Tengah, Kec. Medan Petisah, Kota Medan, Sumatera U",Layanan Binatu,Asia/Jakarta,NO,11,4.6,https://search.google.com/local/reviews?placeid=ChIJSUVLk9ExMTARQJgc_Xhmh5Q&q=la,https://www.google.com/maps?cid=10702635709297891392,3.5853166,98.6692212,0,0,"Minggu: [08.00-20.00], Senin: [08.00-20.00], Selasa: [08.00-20.00], Rabu: [08.00",https://lh3.googleusercontent.com/gps-proxy/ALd4DhFRfow7mulmcHZEbDzd51tKpqSnIIiL,ChIJSUVLk9ExMTARQJgc_Xhmh5Q,+62 61 4515042
Kireiwash  Kirei Wash & Beyond - Medan,"Jl. Gatot Subroto No.104/60, Silalas, Kec. Medan Petisah, Kota Medan, Sumatera U",Binatu,Asia/Jakarta,YES,10,5.0,https://search.google.com/local/reviews?placeid=ChIJ4-HxN-IxMTARo5n9hxXcq6A&q=la,https://www.google.com/maps?cid=11577589252119959971,3.5920293,98.6710177,0,0,"Minggu: [08.00-20.00], Senin: [08.00-20.00], Selasa: [08.00-20.00], Rabu: [08.00",https://lh5.googleusercontent.com/p/AF1QipOczWL5f9IwUl2LPJprSwVkTTg9DNPgeYPVDV-G,ChIJ4-HxN-IxMTARo5n9hxXcq6A,+62 813-9999-7231
One Stop Laundry,"HM78+PC5, Jl. Starban, Polonia, Kec. Medan Polonia, Kota Medan, Sumatera Utara 2",Layanan Binatu,Asia/Jakarta,NO,2,5.0,https://search.google.com/local/reviews?placeid=ChIJvwvalm8xMTARWRGDhmQ338U&q=la,https://www.google.com/maps?cid=14258175850171273561,3.5642544,98.6661174,0,0,"Minggu: [Tutup], Senin: [09.00-20.00], Selasa: [09.00-20.00], Rabu: [09.00-20.00",https://lh5.googleusercontent.com/p/AF1QipPMnZeUgpaWWCFXSPGWwB-WMOd6ptzKRkoiYZE_,ChIJvwvalm8xMTARWRGDhmQ338U,+62 61 88812686
Lucky Laundry,"HM3H+582, Jl. Pipa II, Sari Rejo, Kec. Medan Polonia, Kota Medan, Sumatera Utara",Binatu,Asia/Jakarta,NO,7,5.0,https://search.google.com/local/reviews?placeid=ChIJwzKktBMwMTARzSFx3J5QEac&q=la,https://www.google.com/maps?cid=12038491922171503053,3.5528928,98.6782556,0,0,"Minggu: [Buka 24 jam], Senin: [Buka 24 jam], Selasa: [Buka 24 jam], Rabu: [Buka ",https://streetviewpixels-pa.googleapis.com/v1/thumbnail?panoid=5QWn21vXyuPU6Lc8D,ChIJwzKktBMwMTARzSFx3J5QEac,+62 822-7713-2626
XTRA WASH LAUNDRY & DRY CLEAN,"Jl. Mongonsidi No.76, Polonia, Kec. Medan Polonia, Kota Medan, Sumatera Utara 20",Layanan Binatu,Asia/Jakarta,NO,2,5.0,https://search.google.com/local/reviews?placeid=ChIJ2dfxki8wMTARJI_1-PKDXwQ&q=la,https://www.google.com/maps?cid=315115578521390884,3.5714411,98.6695533,0,0,"Minggu: [07.00-21.00], Senin: [07.00-21.00], Selasa: [07.00-21.00], Rabu: [07.00",https://streetviewpixels-pa.googleapis.com/v1/thumbnail?panoid=ng-gB-ihVgJhgeO2S,ChIJ2dfxki8wMTARJI_1-PKDXwQ,+62 813-9634-5540
JAYA LAUNDRY,"HM58+P97, Jl. Starban, Polonia, Kec. Medan Polonia, Kota Medan, Sumatera Utara 2",Layanan Binatu,Asia/Jakarta,NO,1,5.0,https://search.google.com/local/reviews?placeid=ChIJXzDaYtMxMTAREDS4bWX8ehM&q=la,https://www.google.com/maps?cid=1403711746442015760,3.5611486,98.6660009,0,0,"Minggu: [09.00-22.00], Senin: [06.00-22.00], Selasa: [06.00-22.00], Rabu: [06.00",https://streetviewpixels-pa.googleapis.com/v1/thumbnail?panoid=OakKyAmy6nRFhdJ3L,ChIJXzDaYtMxMTAREDS4bWX8ehM,None
Berkat Loundry 505 Gg. Berkat Starban Polonia,"HM48+WJH, Unnamed Road, Polonia, Kec. Medan Polonia, Kota Medan, Sumatera Utara ",Layanan Binatu,Asia/Jakarta,NO,8,4.5,https://search.google.com/local/reviews?placeid=ChIJG71UYawxMTAREj0DAa2ZME0&q=la,https://www.google.com/maps?cid=5562114508127943954,3.5573246,98.6666032,0,0,"Minggu: [09.00-17.00], Senin: [09.00-17.00], Selasa: [09.00-17.00], Rabu: [09.00",https://lh5.googleusercontent.com/p/AF1QipOK5wj66xntsa_zy5kaa5z69Srx7gB8ITBrkpVp,ChIJG71UYawxMTAREj0DAa2ZME0,None
Nice laundry & dry cleaning,"HMC7+QCG, Jl. Mongonsidi, Anggrung, Kec. Medan Polonia, Kota Medan, Sumatera Uta",Binatu,Asia/Jakarta,NO,8,4.6,https://search.google.com/local/reviews?placeid=ChIJAbxTmCgwMTARaW3as4-qpEM&q=la,https://www.google.com/maps?cid=4874208230896201065,3.5719443,98.6635925,0,0,"Minggu: [08.00-20.00], Senin: [08.00-20.00], Selasa: [08.00-20.00], Rabu: [08.00",https://lh3.googleusercontent.com/gps-proxy/ALd4DhH7KfqXx-R2k93MF-Q5GfLeBNvRTwwT,ChIJAbxTmCgwMTARaW3as4-qpEM,+62 852-9688-1166
Express Laundry,"Jl. Karya Bakti II No.68, Sari Rejo, Kec. Medan Polonia, Kota Medan, Sumatera Ut",Binatu Cucian Kering,Asia/Jakarta,YES,3,5.0,https://search.google.com/local/reviews?placeid=ChIJKT4reRcxMTARwP7UznPBWro&q=la,https://www.google.com/maps?cid=13428257942094020288,3.5440119,98.6653195,0,0,"Minggu: [Tutup], Senin: [08.00-20.00], Selasa: [08.00-20.00], Rabu: [08.59-20.00",https://lh5.googleusercontent.com/p/AF1QipPew70QCh80qZooFuBY9a66e5zQFi5xn36K6e-E,ChIJKT4reRcxMTARwP7UznPBWro,None
Jihan Laundry,"Jl. Teuku Cik Ditiro No.98 F, Madras Hulu, Kec. Medan Polonia, Kota Medan, Sumat",Layanan Binatu,Asia/Jakarta,NO,2,5.0,https://search.google.com/local/reviews?placeid=ChIJ7wzRWdIxMTARFD9Cn9hkV88&q=la,https://www.google.com/maps?cid=14940521170372542228,3.583213,98.66906,0,0,None,https://lh3.googleusercontent.com/gps-proxy/ALd4DhEfeLTPKXTG2YcCrU9VrfESO8KIMG9w,ChIJ7wzRWdIxMTARFD9Cn9hkV88,+62 852-7027-4111
Nico Laundry,"Jl. Sunggal No.25, Sei Sikambing B, Kec. Medan Sunggal, Kota Medan, Sumatera Uta",Binatu Cucian Kering,Asia/Jakarta,YES,12,4.8,https://search.google.com/local/reviews?placeid=ChIJGfSCJzQuMTARveC0ZjPYzl8&q=la,https://www.google.com/maps?cid=6903692994083610813,3.5865827,98.64209,0,0,"Minggu: [08.00-21.00], Senin: [08.00-21.00], Selasa: [08.00-21.00], Rabu: [08.00",https://lh5.googleusercontent.com/p/AF1QipM5KOvU9hluBDjUm-a2ptCV6Lyk2SQowGM6hb3X,ChIJGfSCJzQuMTARveC0ZjPYzl8,+62 852-0787-5911
Kirana Laundry,"Jl. Sunggal No.19 D, Sei Sikambing B, Kec. Medan Sunggal, Kota Medan, Sumatera U",Binatu,Asia/Jakarta,NO,5,5.0,https://search.google.com/local/reviews?placeid=ChIJtX1F5iQvMTAR6wESXE6-ASE&q=la,https://www.google.com/maps?cid=2378391321989743083,3.5795655,98.6321296,0,0,"Minggu: [Buka 24 jam], Senin: [Buka 24 jam], Selasa: [Buka 24 jam], Rabu: [Buka ",https://streetviewpixels-pa.googleapis.com/v1/thumbnail?panoid=Tq18Ixg91h_Du6Dtq,ChIJtX1F5iQvMTAR6wESXE6-ASE,+62 831-8195-0010
Happy Laundry & Dry Clean,"HJG8+CJ9, Jalan, Sunggal, Medan Sunggal, Medan City, North Sumatra 20122",Layanan Binatu,Asia/Jakarta,NO,7,4.3,https://search.google.com/local/reviews?placeid=ChIJcySPAqovMTARa4SROH1S2ww&q=la,https://www.google.com/maps?cid=926424846128219243,3.5760466,98.6166082,0,0,None,https://streetviewpixels-pa.googleapis.com/v1/thumbnail?panoid=YVTTqcA3cqFi3usoV,ChIJcySPAqovMTARa4SROH1S2ww,None
Amal Laundry,"Kompleks Ruko Graha Kuswari, Jl. Amal No.1L, Sunggal, Kec. Medan Sunggal, Kota M",Layanan Binatu,Asia/Jakarta,YES,12,4.9,https://search.google.com/local/reviews?placeid=ChIJI91jbTcvMTAR4_DOxTLXA9Q&q=la,https://www.google.com/maps?cid=15277290974037864675,3.5856164,98.6216179,0,0,"Minggu: [08.00-21.00], Senin: [08.00-21.00], Selasa: [08.00-21.00], Rabu: [08.00",https://lh5.googleusercontent.com/p/AF1QipNVexz3J3PqXfgTCAwhfxs9_aketYGBuSgenP9_,ChIJI91jbTcvMTAR4_DOxTLXA9Q,+62 812-1249-5643
Pelangi Laundry,"Jl. Ps. No.3, Sunggal, Kec. Medan Sunggal, Kota Medan, Sumatera Utara 20128",Binatu,Asia/Jakarta,NO,2,5.0,https://search.google.com/local/reviews?placeid=ChIJZREbG6YvMTARoTAGbertpfk&q=la,https://www.google.com/maps?cid=17989045877708566689,3.5704953,98.620756,0,0,None,https://lh3.googleusercontent.com/gps-proxy/ALd4DhGJen3Rz1UlFcoMs7XIS22fTPe_jJrm,ChIJZREbG6YvMTARoTAGbertpfk,+62 812-6491-302
Medan Laundry,"Jl. Seroja No.28, Sunggal, Kec. Medan Sunggal, Kota Medan, Sumatera Utara 20127",Layanan Binatu,Asia/Jakarta,YES,2,5.0,https://search.google.com/local/reviews?placeid=ChIJQcOc8t4vMTARQr7rDmfWmWc&q=la,https://www.google.com/maps?cid=7465233595463614018,3.5819336,98.6188692,0,0,"Minggu: [07.30-21.30], Senin: [07.30-21.30], Selasa: [07.30-21.30], Rabu: [07.30",https://lh5.googleusercontent.com/p/AF1QipMaPdkIH0H6BKjIcW4cPyjqnahGVfsNFRLGQUbt,ChIJQcOc8t4vMTARQr7rDmfWmWc,None
Mozdeo Sunggal,"Jl. Gagak Hitam No.10 C, Sunggal, Kec. Medan Sunggal, Kota Medan, Sumatera Utara",Binatu,Asia/Jakarta,NO,18,4.8,https://search.google.com/local/reviews?placeid=ChIJ2T4azoMvMTARx2BcA3jLo8Y&q=la,https://www.google.com/maps?cid=14313507757026468039,3.5771726,98.6262229,0,0,"Minggu: [09.00-21.00], Senin: [09.00-21.00], Selasa: [09.00-21.00], Rabu: [09.00",https://lh5.googleusercontent.com/p/AF1QipPh_6rxu99nmIm_nzw3F-U8JD0fHNOAdzLVo9MJ,ChIJ2T4azoMvMTARx2BcA3jLo8Y,+62 811-6187-719
FR Laundry Expres No.77,"HJPC+5GJ, Sunggal, Kec. Medan Sunggal, Kota Medan, Sumatera Utara 20127",Binatu,Asia/Jakarta,NO,2,5.0,https://search.google.com/local/reviews?placeid=ChIJZRUYdE4vMTARxKze5P9duuw&q=la,https://www.google.com/maps?cid=17058049892257017028,3.5854519,98.6212744,0,0,None,https://lh5.googleusercontent.com/p/AF1QipNzagj7YIC8pjyIEaGnwjTC6x_ujkiJPhPqXMuo,ChIJZRUYdE4vMTARxKze5P9duuw,+62 812-6005-1919
RIZZ Laundry Outlet #02,"Jl. Sei Bengawan No.58, Babura Sunggal, Kec. Medan Sunggal, Kota Medan, Sumatera",Layanan Binatu,Asia/Jakarta,YES,12,4.8,https://search.google.com/local/reviews?placeid=ChIJrwcrjQCNaS4RiWT0TH-66mA&q=la,https://www.google.com/maps?cid=6983599228106073225,3.579488,98.6487438,0,0,"Minggu: [07.00-21.00], Senin: [07.00-21.00], Selasa: [07.00-21.00], Rabu: [07.00",https://lh5.googleusercontent.com/p/AF1QipOuCAbcJCB5MbcaxhNL78tq3prq6cnYAr__xCE0,ChIJrwcrjQCNaS4RiWT0TH-66mA,+62 882-9330-8509
Lauren Laundry,"Jl. Bunga Kenanga No.15C, Padang Bulan Selayang II, Kec. Medan Selayang, Kota Me",Binatu,Asia/Jakarta,NO,3,5.0,https://search.google.com/local/reviews?placeid=ChIJubQavk0vMTARFZCT0Ludgbs&q=la,https://www.google.com/maps?cid=13511253787071975445,3.5442695,98.6496647,0,0,None,https://lh5.googleusercontent.com/p/AF1QipPggzmwDf7_U1FZaav588JRfP4OroWPAoKT7XwY,ChIJubQavk0vMTARFZCT0Ludgbs,+62 812-6557-7914
Setia Laundry,"Jl. Berdikari Ujung No.136, Padang Bulan Selayang I, Kec. Medan Selayang, Kota M",Binatu,Asia/Jakarta,NO,2,5.0,https://search.google.com/local/reviews?placeid=ChIJxRf-eOYvMTARcTIhKhU5iFc&q=la,https://www.google.com/maps?cid=6307354041196294769,3.555796,98.651309,0,0,None,https://lh3.googleusercontent.com/gps-proxy/ALd4DhFN5QV2kOjXL1ahUXUPjoeDQf5t73Me,ChIJxRf-eOYvMTARcTIhKhU5iFc,+62 852-7563-0644
Andika Laundry,"Komplek Perumahan ICG No..AA2, Jalan Abdul Hakim, Medan Selayang, Tj. Sari, Kec.",Binatu,Asia/Jakarta,NO,1,5.0,https://search.google.com/local/reviews?placeid=ChIJ71-RSOovMTARpfNl7P6psWk&q=la,https://www.google.com/maps?cid=7616055357213111205,3.5588137,98.6418921,0,0,None,https://lh3.googleusercontent.com/gps-proxy/ALd4DhGGkcNHvxYLHDpt_dx_ceI53lKVj4pC,ChIJ71-RSOovMTARpfNl7P6psWk,+62 812-6587-6189
O'LAUNDRY,"usu, Jl. Pembangunan No.34b, Padang Bulan Selayang I, Medan Selayang, Medan City",Layanan Binatu,Asia/Jakarta,NO,1,5.0,https://search.google.com/local/reviews?placeid=ChIJWarIQgAvMTARiCoEPenyhBg&q=la,https://www.google.com/maps?cid=1766804037401062024,3.5648949,98.6521887,0,0,None,https://streetviewpixels-pa.googleapis.com/v1/thumbnail?panoid=zo5uS9Hbw8RxKJkTs,ChIJWarIQgAvMTARiCoEPenyhBg,None
GS Laundry Medan,"Jl. Ring Road Jl. Ps. II No.12, Tj. Sari, Kec. Medan Selayang, Kota Medan, Sumat",Layanan Binatu,Asia/Jakarta,YES,28,4.5,https://search.google.com/local/reviews?placeid=ChIJwQ95qCAvMTARH8M6IAAbYtw&q=la,https://www.google.com/maps?cid=15880284923416462111,3.5535702,98.6262647,0,0,"Minggu: [Tutup], Senin: [09.00-20.15], Selasa: [09.00-20.15], Rabu: [09.00-20.15",https://lh5.googleusercontent.com/p/AF1QipMBFwA8WoTNdRZYaxLFRrVNVVrlVPA-SQpevtm3,ChIJwQ95qCAvMTARH8M6IAAbYtw,+62 812-6000-9234
Noda Laundry & Wet Cleaning,"Komplek Tasbih 1, Blok UU No. 45, Jl. Cycas II/ 1, Asam Kumbang, Kec. Medan Sela",Layanan Binatu,Asia/Jakarta,YES,46,4.9,https://search.google.com/local/reviews?placeid=ChIJszDPfNMxMTARTtxLD8ciRTE&q=la,https://www.google.com/maps?cid=3550282119601970254,3.567653,98.6326215,0,0,"Minggu: [08.00-20.00], Senin: [08.00-20.00], Selasa: [08.00-20.00], Rabu: [08.00",https://lh5.googleusercontent.com/p/AF1QipNFPYkNUiZEDdvIOG439lPb-j_k9NU3lRKFBr8C,ChIJszDPfNMxMTARTtxLD8ciRTE,+62 811-6556-078
Rainbow Laundry & Dry Clean,"Jl. Sembada No.2 C, Padang Bulan Selayang II, Kec. Medan Selayang, Kota Medan, S",Binatu Cucian Kering,Asia/Jakarta,NO,1,5.0,https://search.google.com/local/reviews?placeid=ChIJ5cwnWIwvMTARd-xcTeh2_iU&q=la,https://www.google.com/maps?cid=2737756363590265975,3.5472349,98.6356793,0,0,"Minggu: [08.00-20.00], Senin: [08.00-20.00], Selasa: [08.00-20.00], Rabu: [08.00",https://lh5.googleusercontent.com/p/AF1QipPmRxojvqrmxzauZG_fjlx429KM0oWT3-D92cog,ChIJ5cwnWIwvMTARd-xcTeh2_iU,+62 852-6269-2808
David Laundry,"GJPW+XFM, Jl. B. Sedap Malam 3D, Sempakata, Kec. Medan Selayang, Kota Medan, Sum",Layanan Binatu,Asia/Jakarta,NO,1,5.0,https://search.google.com/local/reviews?placeid=ChIJw3pnCFklMTARvmI_dtDe5Ps&q=la,https://www.google.com/maps?cid=18150877385128370878,3.5374702,98.6461666,0,0,None,https://streetviewpixels-pa.googleapis.com/v1/thumbnail?panoid=v5RxVmJ1oXLELVCut,ChIJw3pnCFklMTARvmI_dtDe5Ps,None
Sembada laundry,"Jl. Bunga Wijaya Kesuma No.32, Padang Bulan Selayang II, Kec. Medan Selayang, Ko",Layanan Binatu,Asia/Jakarta,YES,1,5.0,https://search.google.com/local/reviews?placeid=ChIJR8-3hnwvMTARMgA47Bhx-uU&q=la,https://www.google.com/maps?cid=16571682130719408178,3.5492807,98.6401763,0,0,"Minggu: [06.00-21.00], Senin: [06.00-21.00], Selasa: [06.00-21.00], Rabu: [06.00",https://lh5.googleusercontent.com/p/AF1QipOV26Q2TFOyMdSPYKknPLWYX7m0NNqk1GHHobAY,ChIJR8-3hnwvMTARMgA47Bhx-uU,+62 812-6943-7548
My Tosca Laundry,"Jl. Letda Sujono No.9, Tembung, Kec. Medan Tembung, Kota Medan, Sumatera Utara 2",Binatu,Asia/Jakarta,NO,10,4.9,https://search.google.com/local/reviews?placeid=ChIJSVg5zbYxMTARTfGKzK98VK4&q=la,https://www.google.com/maps?cid=12561802355135934797,3.5968415,98.7392799,0,0,"Minggu: [09.00-22.00], Senin: [09.00-22.00], Selasa: [09.00-22.00], Rabu: [09.00",https://lh5.googleusercontent.com/p/AF1QipM7RuzvDdLEqeiihhnsx2fvxItKHfAu2W-YFejx,ChIJSVg5zbYxMTARTfGKzK98VK4,None
Mes Laundry Medan,"Jl. Bersama, Tembung, Kec. Medan Tembung, Kota Medan, Sumatera Utara",Binatu Cucian Kering,Asia/Jakarta,YES,1,5.0,https://search.google.com/local/reviews?placeid=ChIJTe96iCMxMTARSdugZeb1rVM&q=la,https://www.google.com/maps?cid=6029745846015286089,3.5944503,98.7378846,0,0,"Minggu: [Tutup], Senin: [08.00-20.00], Selasa: [08.00-20.00], Rabu: [08.00-20.00",https://lh5.googleusercontent.com/p/AF1QipMcLeGagJ7CAMCRvba8d5C_k12UY-nCN-LMA39F,ChIJTe96iCMxMTARSdugZeb1rVM,+62 813-7083-0672
Super Fresh Laundry & Dry Cleaning,"Jl. Bhayangkara No.383, Indra Kasih, Kec. Medan Tembung, Kota Medan, Sumatera Ut",Binatu,Asia/Jakarta,NO,1,5.0,https://search.google.com/local/reviews?placeid=ChIJm58O3CoyMTAR2SplIRKC5MM&q=la,https://www.google.com/maps?cid=14115550146467277529,3.6223312,98.7029498,0,0,None,https://lh5.googleusercontent.com/p/AF1QipNjyVGMksWlZLaEgYv_d07BsVTl0VCmuOGvjX57,ChIJm58O3CoyMTAR2SplIRKC5MM,+62 61 6645183
METRO LAUNDRY COIN MEDAN,"Jl. Meteorologi Raya No.30, Indra Kasih, Kec. Medan Tembung, Kota Medan, Sumater",Layanan Binatu,Asia/Jakarta,YES,6,5.0,https://search.google.com/local/reviews?placeid=ChIJoRhKr8kzMTAR_eR237pHVMM&q=la,https://www.google.com/maps?cid=14074953603378242813,3.6216473,98.7093914,0,0,"Minggu: [08.00-22.00], Senin: [08.00-22.00], Selasa: [08.00-22.00], Rabu: [08.00",https://lh5.googleusercontent.com/p/AF1QipOXrF15dxMoA0_8a_qztKx9BYhPkJShKjAqVIKJ,ChIJoRhKr8kzMTAR_eR237pHVMM,+62 813-7706-3494
EveryDay Laundry,"Jl. Pukat I No.41, Bantan Tim., Kec. Medan Tembung, Kota Medan, Sumatera Utara 2",Binatu,Asia/Jakarta,YES,12,5.0,https://search.google.com/local/reviews?placeid=ChIJc7Br8-gxMTARsVKEVWyi8OA&q=la,https://www.google.com/maps?cid=16208633645081318065,3.5963107,98.7101056,0,0,"Minggu: [07.00-19.00], Senin: [07.00-19.00], Selasa: [07.00-19.00], Rabu: [07.00",https://lh5.googleusercontent.com/p/AF1QipOdFeCFax2iIrujbZ3KT6Hq6WAVTXzhR21zCQwu,ChIJc7Br8-gxMTARsVKEVWyi8OA,+62 816-378-080
Cahaya Laundry,"Jl. Tempuling No.157, Sidorejo Hilir, Kec. Medan Tembung, Kota Medan, Sumatera U",Binatu Cucian Kering,Asia/Jakarta,NO,28,3.4,https://search.google.com/local/reviews?placeid=ChIJ-R_TgYYxMTARdT2i9ht3CLw&q=la,https://www.google.com/maps?cid=13549210440929787253,3.6152232,98.6959991,0,0,"Minggu: [00.09-22.00], Senin: [00.09-22.00], Selasa: [00.09-22.00], Rabu: [00.09",https://lh5.googleusercontent.com/p/AF1QipOSpK_DEHLynTQUTmV6ewIBnM8kiRBJ_bI21BM=,ChIJ-R_TgYYxMTARdT2i9ht3CLw,+62 878-7070-2070
Ai Wash Laundry,"JPC4+XX2, Jl. Pancing, Indra Kasih, Kec. Medan Tembung, Kota Medan, Sumatera Uta",Binatu,Asia/Jakarta,NO,2,5.0,https://search.google.com/local/reviews?placeid=ChIJ1xjNrdUzMTARiv9bkZPjFjY&q=la,https://www.google.com/maps?cid=3897552750474166154,3.6223901,98.7073966,0,0,None,https://lh3.googleusercontent.com/gps-proxy/ALd4DhG8K476cDGDh6yGVu_O0G67f-yK7ibV,ChIJ1xjNrdUzMTARiv9bkZPjFjY,+62 853-7061-3717
QQ Laundry Express,"jln pukat 8, simpang Gg. Sadar No.58, Kota Medan, Sumatera Utara 20224",Layanan Binatu,Asia/Jakarta,YES,41,5.0,https://search.google.com/local/reviews?placeid=ChIJt7WdMeIxMTARLLBNak1lLyY&q=la,https://www.google.com/maps?cid=2751529280517025836,3.5890336,98.7087546,0,0,"Minggu: [08.00-19.00], Senin: [08.00-20.00], Selasa: [08.00-20.00], Rabu: [08.00",https://lh5.googleusercontent.com/p/AF1QipMoK0QhniL-5C3-9Kaf2Oel0HUIDdS3cw5zZFHe,ChIJt7WdMeIxMTARLLBNak1lLyY,+62 812-6509-2915
Oke Laundry medan,"Jl. Williem Iskandar, Indra Kasih, Kec. Medan Tembung, Kota Medan, Sumatera Utar",Layanan Binatu,Asia/Jakarta,YES,1,5.0,https://search.google.com/local/reviews?placeid=ChIJ6dzZnMMzMTARWlnB5W6QztY&q=la,https://www.google.com/maps?cid=15478467775294429530,3.620613,98.7076692,0,0,None,https://lh5.googleusercontent.com/p/AF1QipN-hzFHrkqPn44CB-urvMTSXCHSkEzUuTYpoOJM,ChIJ6dzZnMMzMTARWlnB5W6QztY,+62 857-6131-3040
KR5 Laundry and Dry clean,"Jalan Kopi Xll, Perumnas Simalingkar No.11, Mangga, Kec. Medan Tuntungan, Kota M",Binatu Cucian Kering,Asia/Jakarta,YES,18,5.0,https://search.google.com/local/reviews?placeid=ChIJVS1RZRUlMTARDXdFhZbkk0U&q=la,https://www.google.com/maps?cid=5013602145325643533,3.5213471,98.6378525,0,0,"Minggu: [09.00-21.00], Senin: [07.00-21.00], Selasa: [07.00-21.00], Rabu: [07.00",https://lh5.googleusercontent.com/p/AF1QipOdjdkp8ng-oTclviFpudGTYvYobl4pxOEbe44m,ChIJVS1RZRUlMTARDXdFhZbkk0U,+62 852-6277-2626
Grande laundry,"Jl. Bunga Rampai raya No.80, Simalingkar B, Kec. Medan Tuntungan, Kota Medan, Su",Binatu,Asia/Jakarta,NO,3,5.0,https://search.google.com/local/reviews?placeid=ChIJ-QyBf1klMTARB7YYum6wOl4&q=la,https://www.google.com/maps?cid=6789933377829516807,3.5037516,98.6494019,0,0,"Minggu: [Tutup], Senin: [08.00-20.00], Selasa: [08.00-20.00], Rabu: [08.00-20.00",https://lh5.googleusercontent.com/p/AF1QipPWyrHzFrppK6ffD4IVzB7PzDzrJbBKJGp7npJB,ChIJ-QyBf1klMTARB7YYum6wOl4,None
Fast Loundry,"Jl. Bunga Lau No.10, Kemenangan Tani, Kec. Medan Tuntungan, Kota Medan, Sumatera",Binatu,Asia/Jakarta,NO,1,5.0,https://search.google.com/local/reviews?placeid=ChIJlSNA3OQlMTARTXRuczrwIvk&q=la,https://www.google.com/maps?cid=17952175198487606349,3.5153375,98.6141959,0,0,None,https://streetviewpixels-pa.googleapis.com/v1/thumbnail?panoid=ZTrCohk_ZMk761J4J,ChIJlSNA3OQlMTARTXRuczrwIvk,+62 853-7028-3647
Darman Laundry,"Villa Setia Budi Flamboyan Blok Q26, Jl. Flamboyan Raya, Tanjung Selamat, Medan ",Layanan Binatu,Asia/Jakarta,YES,54,4.6,https://search.google.com/local/reviews?placeid=ChIJPUxebH4vMTARMDjXRiLBTQw&q=la,https://www.google.com/maps?cid=886577054623414320,3.5454178,98.6125613,0,0,"Minggu: [Tutup], Senin: [09.00-17.00], Selasa: [09.00-17.00], Rabu: [09.00-17.00",https://lh5.googleusercontent.com/p/AF1QipMFuL24-Qw-BVLkDQV3nVsVSbI0ettFEQRWBhCr,ChIJPUxebH4vMTARMDjXRiLBTQw,+62 821-6765-8641
Sahabat Laundry,"GJM9+8P5, Jl. Lizadri Putra, Simpang Selayang, Kec. Medan Tuntungan, Kota Medan,",Binatu,Asia/Jakarta,NO,1,5.0,https://search.google.com/local/reviews?placeid=ChIJpzn_qHklMTARkXpzw0k5i78&q=la,https://www.google.com/maps?cid=13802188471981537937,3.5332544,98.6193497,0,0,None,https://streetviewpixels-pa.googleapis.com/v1/thumbnail?panoid=NvXxDGKE6gqeI5HW1,ChIJpzn_qHklMTARkXpzw0k5i78,None
D'LAVIGA LAUNDRY,"Jl. Kapiten Purba No.1, Mangga, Kec. Medan Tuntungan, Kota Medan, Sumatera Utara",Binatu,Asia/Jakarta,NO,1,5.0,https://search.google.com/local/reviews?placeid=ChIJrSe-zoElMTAR2fz24VJFF3k&q=la,https://www.google.com/maps?cid=8725519025334320345,3.5225421,98.6357402,0,0,"Minggu: [Tutup], Senin: [08.00-21.00], Selasa: [08.00-21.00], Rabu: [08.00-21.00",https://lh5.googleusercontent.com/p/AF1QipO1qlbocmhU2qA9AvQui_t-8_YAV1pvZ2T2IAPF,ChIJrSe-zoElMTAR2fz24VJFF3k,+62 813-9614-5454
Berkah Laundry,"GJCP+87M, Jl. Karet Raya, Mangga, Kec. Medan Tuntungan, Kota Medan, Sumatera Uta",Binatu,Asia/Jakarta,NO,2,4.5,https://search.google.com/local/reviews?placeid=ChIJq3Rn02olMTARqRtQkHErue8&q=la,https://www.google.com/maps?cid=17273885612508715945,3.52084,98.635685,0,0,None,https://lh3.googleusercontent.com/gps-proxy/ALd4DhHY2BuM5RyWnf78fma_-YW2dyMqRvyk,ChIJq3Rn02olMTARqRtQkHErue8,+62 823-6655-3387
Baim Laundry,"Perumahan pariama, Jl. Bunga Pariama I No.132, Baru Ladang Bambu, Kec. Medan Tun",Layanan Binatu,Asia/Jakarta,NO,35,4.9,https://search.google.com/local/reviews?placeid=ChIJu4BNCbMlMTARHCd5dHSS2XU&q=la,https://www.google.com/maps?cid=8491979601251739420,3.502345,98.6021532,0,0,"Minggu: [Tutup], Senin: [08.00-20.00], Selasa: [08.00-20.00], Rabu: [08.00-20.00",https://lh5.googleusercontent.com/p/AF1QipPKI6EvDUjLuatP6XUx6wsIdUvcFvEAX15dgLEq,ChIJu4BNCbMlMTARHCd5dHSS2XU,+62 812-6925-6868
ThreeWash Laundry,"GJR3+FFP, Jl. Flamboyan 6, Tj. Selamat, Kec. Medan Tuntungan, Kota Medan, Sumate",Binatu,Asia/Jakarta,NO,1,5.0,https://search.google.com/local/reviews?placeid=ChIJ7wxJ1X4lMTAR_HRDajSvJWg&q=la,https://www.google.com/maps?cid=7504596993738765564,3.5411868,98.6037057,0,0,None,https://streetviewpixels-pa.googleapis.com/v1/thumbnail?panoid=FByeXsBP9nFTPU81i,ChIJ7wxJ1X4lMTAR_HRDajSvJWg,+62 813-9685-7448
Vanili Laundry,"Jl. Vanili Raya No.99, Mangga, Kec. Medan Tuntungan, Kota Medan, Sumatera Utara ",Layanan Binatu,Asia/Jakarta,NO,1,5.0,https://search.google.com/local/reviews?placeid=ChIJRRBgJRolMTAR_mZCdnua_7o&q=la,https://www.google.com/maps?cid=13474658465171531518,3.5089123,98.6320103,0,0,None,https://streetviewpixels-pa.googleapis.com/v1/thumbnail?panoid=74t43_BSEcRXU9uFw,ChIJRRBgJRolMTAR_mZCdnua_7o,None
Laundry The Daily Wash dr.mansur,"Jl. Dr. Mansyur No.27, Padang Bulan Selayang I, Kec. Medan Selayang, Kota Medan,",Binatu,Asia/Jakarta,NO,16,4.3,https://search.google.com/local/reviews?placeid=ChIJRVBzuOAvMTARvAoMHnPIjn8&q=la,https://www.google.com/maps?cid=9191504286260660924,3.5673321,98.6511926,0,0,None,https://lh5.googleusercontent.com/p/AF1QipPZbYXraVwIfvYXlNDAxUoKSo-OVfasEvV2UT9K,ChIJRVBzuOAvMTARvAoMHnPIjn8,None
Tetanggamu Laundry,"Jl. Prof. H. M. Yamin No.17b, Perintis, Kec. Medan Tim., Kota Medan, Sumatera Ut","Binatu, Binatu Cucian Kering",Asia/Jakarta,YES,71,5.0,https://search.google.com/local/reviews?placeid=ChIJm3wk6T0xMTARklU3Z1EHu_A&q=la,https://www.google.com/maps?cid=17346466435953022354,3.5943874,98.6802426,0,0,"Minggu: [08.30-19.00], Senin: [08.30-19.00], Selasa: [08.30-19.00], Rabu: [08.30",https://lh5.googleusercontent.com/p/AF1QipN-8xjSLktBIfazpECNZC4SLLX_L6VKTDZYDit5,ChIJm3wk6T0xMTARklU3Z1EHu_A,+62 812-6511-5252
Mutiara Laundry Express Powered By DEXTER,"Jl. Arief Rahman Hakim No.136, RT.02, Ps. Merah Tim., Kec. Medan Area, Kota Meda",Binatu,Asia/Jakarta,NO,9,4.6,https://search.google.com/local/reviews?placeid=ChIJkeYbghYxMTARPkO-mgNDoS4&q=la,https://www.google.com/maps?cid=3360040479755223870,3.5719732,98.7033991,0,0,"Minggu: [09.00-22.00], Senin: [09.00-22.00], Selasa: [09.00-22.00], Rabu: [09.00",https://lh5.googleusercontent.com/p/AF1QipMi-KBhP7cL3YmpW9Z_z6r0O4wqnMB7nlft4Nll,ChIJkeYbghYxMTARPkO-mgNDoS4,None
Srikandi Laundry (Laundry Antar Jemput Medan),"Jl. Sidorukun No.78b, Pulo Brayan Darat II, Kec. Medan Tim., Kota Medan, Sumater",Binatu Cucian Kering,Asia/Jakarta,YES,14,5.0,https://search.google.com/local/reviews?placeid=ChIJvRwVDgAzMTARUzWOubu-ujw&q=la,https://www.google.com/maps?cid=4376019701425124691,3.6256113,98.6870285,0,0,"Minggu: [08.00-21.00], Senin: [08.00-21.00], Selasa: [08.00-21.00], Rabu: [08.00",https://lh5.googleusercontent.com/p/AF1QipM2uwtl-ZWYtuBQm_gwKJZDpdk7apNtSEexAR8j,ChIJvRwVDgAzMTARUzWOubu-ujw,+62 895-3445-94449
